cb([{"campusid":"medford","name":"Medford/Somerville","maps":[{"campusid":"medford","latlng":"42.406898,-71.120596","mapid":"medford-main","name":"Medford/Somerville","zoom":18,"locations":[{"address1":"23 Bellevue Street","campus":"medford","city":"Medford","emphasis":"1","latlng":"42.41031,-71.121862","locationid":"m23bellevue","name":"23 Bellevue Street","tags":"CSRD, building","zip":"02155","occupants":[{"name":"Center for the Study of Race and Democracy","website":"http://as.tufts.edu/csrd/","phone":"7818749178","locwithin":"Third floor"},{"name":"Talloires Network Secretariat","website":"http://talloiresnetwork.tufts.edu","email":"talloiresnetwork@tufts.edu","phone":"7818749731","locwithin":"Entrance on Capen Street Extended"}]},{"locationid":"msis","emphasis":"1","latlng":"42.404328,-71.120254","campus":"medford","name":"SIS Project Building","tags":"Student Information System, building","address1":"62 Rear Talbot Ave","city":"Somerville","zip":"02144","occupants":[]},{"campus":"medford","name":"101 Talbot Avenue","tags":"building, Russian House, residence","address1":"101 Talbot Avenue","city":"Somerville","zip":"02144","locationid":"m122","emphasis":"1","latlng":"42.405947,-71.121809","occupants":[]},{"campus":"medford","tags":"building, PACE, psychology","zip":"02144","latlng":"42.404787,-71.116729","name":"108 Bromfield Road","address1":"108 Bromfield Road","city":"Somerville","locationid":"m144","phone":"6176274000","emphasis":"1","occupants":[]},{"name":"108 Packard Avenue","address1":"108 Packard Avenue","city":"Somerville","zip":"02144","phone":"6176273568","latlng":"42.405774,-71.122854","campus":"medford","tags":"building, Conference bureau, summer programs","website":"http://ase.tufts.edu/conferences/","locationid":"m074","emphasis":"1","occupants":[{"email":"france@tufts.edu","locwithin":"Third floor","name":"European Center","phone":"6176273290","website":"http://ase.tufts.edu/europeancenter/"}]},{"locationid":"m103","phone":"6176273233","emphasis":"1","campus":"medford","tags":"building, Community health","zip":"02144","latlng":"42.405875,-71.12279","name":"112 Packard Avenue","website":"http://ase.tufts.edu/commhealth/","address1":"112 Packard Avenue","city":"Somerville","occupants":[{"name":"Community Health - A&S","website":"http://ase.tufts.edu/commhealth/","email":"chp@tufts.edu","phone":"6176273233"}]},{"campus":"medford","tags":"building, Government and Community Relations, accessible-assistance","zip":"02144","latlng":"42.406032,-71.122747","name":"120 Packard Avenue","website":"http://communityrelations.tufts.edu/","address1":"120 Packard Avenue","city":"Somerville","accessibilityrestroom":0,"locationid":"m104","emphasis":"1","accessibility":2,"occupants":[{"name":"Audit & Management Advisory Services","website":"http://sites.tufts.edu/amas/","email":"Seth.kornetsky@tufts.edu","phone":"6176273227","locwithin":"First and 2nd floor"},{"name":"University Relations - Community Relations","website":"http://communityrelations.tufts.edu/","email":"barbara.rubel@tufts.edu","phone":"6176273780","locwithin":"First floor"}]},{"campus":"medford","name":"114 Curtis Street","tags":"building, Feinstein International Center","address1":"114 Curtis Street","city":"Somerville","zip":"02144","locationid":"m132","emphasis":"1","latlng":"42.407178,-71.124957","occupants":[{"name":"Feinstein International Center","website":"http://sites.tufts.edu/feinstein/","email":"fic@tufts.edu","phone":"6176273423"}]},{"campus":"medford","name":"126 Curtis Street","tags":"building, Anthropology, religion","address1":"126 Curtis Street","city":"Somerville","zip":"02144","locationid":"m093","emphasis":"1","latlng":"42.40763,-71.124647","occupants":[]},{"locationid":"m110","emphasis":"1","latlng":"42.407316,-71.123995","campus":"medford","name":"128 Professors Row","tags":"building","address1":"128 Professors Row","city":"Somerville","zip":"02144","occupants":[]},{"campus":"medford","tags":"building, accessible-assistance","zip":"02144","latlng":"42.406304,-71.12342","name":"16-20 Sawyer Avenue","address1":"16 Sawyer Avenue","city":"Somerville","accessibilityrestroom":0,"locationid":"m148","emphasis":"1","accessibility":2,"occupants":[{"name":"International Office - A&S","website":"http://ase.tufts.edu/icenter/","email":"InternationalCenter@tufts.edu","phone":"6176273458"}]},{"address1":"177 College Avenue","campus":"medford","city":"Medford","emphasis":"1","latlng":"42.408154,-71.11668","locationid":"m011","name":"177 College Avenue","tags":"building","zip":"02155","occupants":[]},{"campus":"medford","name":"20 Professors Row","tags":"building","address1":"20 Professors Row","city":"Somerville","zip":"02144","locationid":"m106","emphasis":"1","latlng":"42.405403,-71.118679","occupants":[{"name":"Boards of Advisors","website":"http://provost.tufts.edu/advisors/","email":"advisors@tufts.edu","phone":"6176273324","locwithin":"Third floor"},{"name":"Office of the Vice Provost","website":"http://viceprovost.tufts.edu/","email":"Martin.Lavigne@tufts.edu","phone":"6176273417","locwithin":"First floor"}]},{"accessibility":2,"accessibilityrestroom":0,"address1":"200 Boston Avenue","campus":"medford","city":"Medford","emphasis":"5","latlng":"42.415783,-71.126647","locationid":"r027","name":"200 Boston Avenue","tags":"HR, accessible-assistance, building","zip":"02155","occupants":[{"name":"Department of Biology, School of Arts and Sciences","phone":"61762703206176270322","locwithin":"4th Floor, Suites 4600, 4700, and 4800; Receptions/Deliveries to Room 4676"},{"name":"Center for Regenerative and Developmental Biology","phone":"6176275735","locwithin":"Suite 4800"},{"name":"Gordon Institute","website":"http://gordon.tufts.edu/","email":"nancy.buczko@tufts.edu","phone":"6176273117","locwithin":"Suite 2400"},{"name":"Human Resources","website":"http://hr.tufts.edu","phone":"6176274288","locwithin":"1st floor"},{"name":"Human-Robot Interaction Laboratory ","website":"http://hrilab.cs.tufts.edu/"},{"name":"Neuromechanics and Biomimetic Devices Laboratory","website":"http://ase.tufts.edu/biology/labs/trimmer/","phone":"6176270322","locwithin":"Suite 2600"},{"name":"Tufts Collaborative Cluster in Genome Structure and Developmental Patterning","phone":"6176270320","locwithin":"Suites 4700 and 4800"}]},{"address1":"196 Boston Avenue","campus":"medford","city":"Medford","emphasis":"4","latlng":"42.416188,-71.127602","locationid":"r196b","name":"196 Boston Avenue","tags":"building","zip":"02155","occupants":[{"name":"Interdisciplinary Laboratory for Computation - ILC","locwithin":"4th floor"},{"name":"Office of Equal Opportunity","website":"http://oeo.tufts.edu","email":"oeo@tufts.edu","phone":"6176273298","locwithin":"First floor"}]},{"accessibility":2,"accessibilityrestroom":0,"address1":"26 Winthrop Street","campus":"medford","city":"Medford","emphasis":"1","latlng":"42.410364,-71.123084","locationid":"m013","name":"26 Winthrop Street","phone":"6176275720","tags":"OT, Occupational Therapy, accessible-assistance, building","website":"http://ase.tufts.edu/bsot/","zip":"02155","occupants":[{"name":"Occupational Therapy - A&S","website":"http://ase.tufts.edu/bsot/","email":"BSOT@tufts.edu","phone":"6176275750"}]},{"locationid":"m149","emphasis":"1","latlng":"42.406399,-71.123679","campus":"medford","name":"28 Sawyer Avenue","tags":"building","address1":"28 Sawyer Avenue","city":"Somerville","zip":"02144","occupants":[{"name":"Institutional Research","website":"http://provost.tufts.edu/institutionalresearch/","phone":"6176273274"}]},{"phone":"6176273530","latlng":"42.405711,-71.125144","campus":"medford","tags":"GDAE, Global Development and Environment Institute, building","website":"http://ase.tufts.edu/gdae/","locationid":"m123","emphasis":"1","name":"44 Teele Avenue","address1":"44 Teele Avenue","city":"Somerville","zip":"02144","occupants":[{"name":"Global Development And Environment Institute","website":"http://ase.tufts.edu/gdae/","email":"GDAE@tufts.edu","phone":"6176273530"}]},{"latlng":"42.405884,-71.120206","name":"Fung House","website":"http://ase.tufts.edu/CHAT/","address1":"48 Professors Row","city":"Somerville","locationid":"m107","phone":"6176273342","emphasis":"1","campus":"medford","tags":"Center for Humanities, building","zip":"02144","occupants":[{"name":"Center for the Humanities","website":"http://ase.tufts.edu/chat/","email":"humanities@tufts.edu","phone":"6176273342"}]},{"accessibility":2,"accessibilityrestroom":1,"address1":"51 Winthrop Street","campus":"medford","city":"Medford","emphasis":"1","latlng":"42.411026,-71.121642","locationid":"m193","name":"51 Winthrop Street","tags":"graduation-ceremony, accessible-assistance, accessible-restroom, building","zip":"02155","occupants":[]},{"campus":"medford","tags":"Women&#39;s Center, building","website":"http://www.ase.tufts.edu/womenscenter/","locationid":"m120","emphasis":"1","name":"55 Talbot Avenue","address1":"55 Talbot Avenue","city":"Somerville","zip":"02144","phone":"6176273184","latlng":"42.40524,-71.119782","occupants":[]},{"accessibility":2,"accessibilityrestroom":1,"address1":"80 George Street","campus":"medford","city":"Medford","emphasis":"5","latlng":"42.411891,-71.115204","locationid":"m192","name":"80 George Street","tags":"Dame School, accessible-assistance, accessible-restroom, building","zip":"02155","occupants":[{"name":"Nutrition Newsletter Office","email":"julie.flaherty@tufts.edu","phone":"6176274273","locwithin":"First floor"},{"name":"University Relations - Digital Communications","website":"http://webcomm.tufts.edu/","email":"wccontact@tufts.edu","phone":"6176274282","locwithin":"First floor"},{"name":"University Photography","website":"http://photo.tufts.edu/","email":"photo@tufts.edu","phone":"6176274282","locwithin":"First floor"},{"name":"UA - AS&E Tufts Fund","website":"http://giving.tufts.edu/ways_to_give/annualgiving/get_involved/student_fund.html","email":"tuftsfund@tufts.edu","phone":"6176273014","locwithin":"Suite 300-5"},{"name":"UA - Parents Program","website":"http://giving.tufts.edu/parents/","email":"parentsprogram@tufts.edu","phone":"6176273798","locwithin":"Suite 300"},{"name":"UA - Arts & Sciences Development","website":"http://giving.tufts.edu/ways_to_give/support/a&s.html","email":"tuftsfund@tufts.edu","phone":"6176273014","locwithin":"Suite 300-2"},{"name":"UA - Alumni Relations","website":"http://alumni.tufts.edu/","email":"kaleigh.fitzpatrick@tufts.edu","phone":"6176273532","locwithin":"Suite 100-3"},{"name":"UA - Gift & Information Systems","website":"http://finance.tufts.edu/financialservices/","email":"giftupdate@tufts.edu","phone":"6176274705","locwithin":"Suite 200-4"},{"name":"UA - Special Events","phone":"6176273787","locwithin":"Suite 200-3"},{"name":"UA - Planned Giving","website":"http://www.tufts.edu/development/ways_to_give/giftplanning/index.html","email":"giftplanning@tufts.edu","phone":"6176273727","locwithin":"Suite 300-6"},{"name":"UA - Corporate & Foundation Relations","website":"http://cfr.tufts.edu/","email":"donald.mcgowan@tufts.edu","phone":"6176275263","locwithin":"Suite 200-2"},{"name":"UA - Prospect Management & Research","email":"Amber.Countis@tufts.edu","phone":"6176273433","locwithin":"Suite 200-1"},{"name":"University Relations - Public Relations","website":"http://pr.tufts.edu/","email":"kim.thurler@tufts.edu","phone":"6176273069","locwithin":"Suite 100"},{"name":"UA - Advancement Services","website":"http://advancement.tufts.edu/","email":"giving@tufts.edu","phone":"6176273143","locwithin":"Suite 200-4"},{"name":"UA - Office of Vice President","website":"http://advancement.tufts.edu/","phone":"6176273143","locwithin":"Suite 300-1"},{"name":"UA - Central Development Program","email":"chris.simoneau@tufts.edu","phone":"6176273287","locwithin":"Suite 300-1"},{"name":"UA - University Advancement Development","website":"http://advancement.tufts.edu/","email":"giving@tufts.edu","phone":"6176273143","locwithin":"Suite 200-4"},{"name":"UA - Information Systems","locwithin":"Suite 200-4"},{"name":"UA - Technology Support","website":"http://ase.tufts.edu/its/","locwithin":"Suite 200-4"},{"name":"UA - Planning & Administration","locwithin":"Suite 200-4"},{"name":"UA - Communications & Donor Relations","locwithin":"Suite 200-3"},{"name":"University Relations - Publications","website":"http://publications.tufts.edu/","email":"karen.bailey@tufts.edu","phone":"6176272126","locwithin":"Suite 100-1"}]},{"campus":"medford","name":"89-91 Curtis Street","tags":"building","address1":"89-91 Curtis Street","city":"Somerville","zip":"02144","locationid":"m089","emphasis":"1","latlng":"42.406244,-71.125095","occupants":[{"name":"Dining Services","website":"http://dining.tufts.edu/","email":"tuftsdining@tufts.edu","phone":"6176273566","locwithin":"First floor"},{"name":"Faculty Center/Catering","website":"http://catering.tufts.edu/","phone":"6176273411","locwithin":"Third floor"}]},{"locationid":"m174","emphasis":"1","name":"96 Packard Avenue","address1":"96 Packard Avenue","city":"Somerville","zip":"02144","phone":"6176273314","latlng":"42.405375,-71.123123","campus":"medford","tags":"Institute for Global Leadership, IGL, building","website":"http://www.tuftsgloballeadership.org/","occupants":[]},{"phone":"6176273394","latlng":"42.405909,-71.121588","campus":"medford","tags":"UEP, Urban and Environmental Policy, building","website":"http://ase.tufts.edu/uep/","locationid":"m147","emphasis":"1","name":"97 Talbot Avenue","address1":"97 Talbot Avenue","city":"Somerville","zip":"02144","occupants":[{"name":"Urban & Enviro Policy & Plan","website":"http://ase.tufts.edu/uep/","email":"ann.urosevich@tufts.edu","phone":"6176273394"}]},{"accessibility":2,"accessibilityrestroom":0,"address1":"35 Lower Campus Road","campus":"medford","city":"Medford","emphasis":"1","latlng":"42.404418,-71.120602","locationid":"m145","name":"TTS Technology Support Center","tags":"Arena Annex, accessible-assistance, building","zip":"02155","occupants":[{"name":"Tufts Online","website":"https://student.support.tufts.edu/","email":"tolhelp@tufts.edu","phone":"6176274865"}]},{"accessibility":2,"accessibilityrestroom":1,"address1":"40 Talbot Avenue","campus":"medford","city":"Medford","emphasis":"5","latlng":"42.404078,-71.11929","locationid":"m019","name":"Aidekman Arts Center","tags":"Tufts University Art Gallery, music, arts, dance, performance, theatre, theater, play, act, ticket, music library, accessible-assistance, accessible-restroom, building, restroom-disabled, commencement","zip":"02155","occupants":[{"name":"Art Gallery","website":"http://artgallery.tufts.edu/default.aspx","email":"artgallery@tufts.edu","phone":"6176273518","locwithin":"First and 2nd floor"},{"name":"Drama and Dance - A&S","website":"http://ase.tufts.edu/drama-dance/","email":"rita.dioguardi@tufts.edu","phone":"6176273524","locwithin":"Left of Cohen"},{"name":"Audio Labs"}]},{"accessibility":2,"accessibilityrestroom":0,"address1":"40 Talbot Avenue","campus":"medford","city":"Medford","emphasis":"1","latlng":"42.404649,-71.119162","locationid":"m019a","name":"Alumnae Hall","tags":"accessible-assistance, building","zip":"02155","occupants":[]},{"locationid":"m041","emphasis":"4","latlng":"42.405814,-71.121219","campus":"medford","name":"Alumni House","tags":"building","address1":"95 Talbot Avenue","city":"Somerville","zip":"02144","occupants":[{"name":"Experimental College","website":"http://www.excollege.tufts.edu/","email":"excollege@tufts.edu","phone":"6176273384"}]},{"accessibility":2,"accessibilityrestroom":0,"address1":"200 College Avenue","campus":"medford","city":"Medford","emphasis":"4","latlng":"42.406166,-71.116812","locationid":"m003","name":"Anderson Hall","tags":"engineering, accessible-assistance, building","zip":"02155","occupants":[{"name":"Mechanical Engineering","website":"http://engineering.tufts.edu/me/","email":"meinfo@tufts.edu","phone":"6176273239","locwithin":"Room 204"},{"name":"School of Engineering","website":"http://engineering.tufts.edu/","email":"engineeringdeansoffice@tufts.edu","phone":"6176273237","locwithin":"Room 105"},{"name":"Civil and Environmental Engineering","website":"http://engineering.tufts.edu/cee/","email":"ceeinfo@tufts.edu","phone":"6176273211","locwithin":"First floor, Room 11"},{"name":"UA - Engineering Development","website":"http://ase.tufts.edu/epdc/","email":"leah.friedberg@tufts.edu","phone":"6176272402","locwithin":"First floor"}]},{"accessibility":2,"accessibilityrestroom":0,"address1":"530 Boston Avenue","campus":"medford","city":"Medford","emphasis":"1","latlng":"42.404932,-71.114953","locationid":"m025","name":"Bacon Hall","tags":"animal research, psychology lab, accessible-assistance, building","zip":"02155","occupants":[]},{"accessibility":2,"accessibilityrestroom":0,"address1":"40 Talbot Avenue","campus":"medford","city":"Medford","emphasis":"1","latlng":"42.40449,-71.119253","locationid":"m019b","name":"Balch Arena Theater","tags":"play, theater, performance, graduation-ceremony, accessible-assistance, building","zip":"02155","occupants":[]},{"accessibility":2,"accessibilityrestroom":0,"address1":"1 The Green","campus":"medford","city":"Medford","emphasis":"5","imageurl":"ballouhall-wide.png","latlng":"42.407443,-71.120121","locationid":"m029","name":"Ballou Hall","tags":"Coolidge Room, administration, accessible-assistance, building","thumbnail":"ballouhall-th.png","zip":"02155","occupants":[{"locwithin":"First floor","name":"Office of Institutional Diversity","phone":"6176273298","website":"http://diversity.tufts.edu"},{"email":"gradschool@ase.tufts.edu","locwithin":"First floor","name":"Graduate Arts & Sciences","phone":"6176273395","website":"http://gs.as.tufts.edu/about/contactus.htm"},{"email":"Patricia.Campbell@tufts.edu","locwithin":"Fourth floor","name":"Office of the Executive Vice President","phone":"6176273331","website":"http://evp.tufts.edu/"},{"email":"candace.copithorne@tufts.edu","locwithin":"Second floor","name":"President's Office","phone":"6176273300","website":"http://president.tufts.edu/"},{"locwithin":"Third floor","name":"Office Dean Arts & Sciences","phone":"6176275117","website":"http://as.tufts.edu/about/deansoffice/index.htm"},{"locwithin":"Fourth floor","name":"Office of the Trustees","phone":"6176273320","website":"http://trustees.tufts.edu/"},{"email":"mary.jeka@tufts.edu","locwithin":"Third floor","name":"University Relations - Office of the VP","phone":"6176274220","website":"http://universityrelations.tufts.edu/university-relations-contact-information/"},{"locwithin":"Third floor","name":"University Relations - University Counsel","phone":"6176272147","website":"http://legal.tufts.edu/"},{"email":"provost@tufts.edu","locwithin":"Second floor","name":"Provost's Office","phone":"6176273310","website":"http://provost.tufts.edu/"}]},{"accessibility":2,"accessibilityrestroom":0,"address1":"163 Packard Avenue","campus":"medford","city":"Medford","emphasis":"1","imageurl":"barnum-wide.png","latlng":"42.407633,-71.120719","locationid":"m004","name":"Barnum Hall","tags":"Biology, Lab, Film Series, accessible-assistance, building","thumbnail":"barnumhall-th.png","zip":"02155","occupants":[{"name":"Biology - A&S","website":"http://ase.tufts.edu/biology/","email":"eileen.magnant@tufts.edu","phone":"6176273195"}]},{"accessibility":2,"accessibilityrestroom":0,"address1":"2 The Green","campus":"medford","city":"Medford","emphasis":"4","imageurl":"bendetson-wide.png","latlng":"42.408167,-71.119719","locationid":"m035","name":"Bendetson Hall","phone":"6176273170","tags":"accessible-assistance, building","thumbnail":"bendetsonhall-th.png","website":"http://admissions.tufts.edu/","zip":"02155","occupants":[]},{"address1":"1 Winthrop Street","campus":"medford","city":"Medford","emphasis":"4","latlng":"42.408109,-71.12273","locationid":"m071","name":"Blakeley Hall","tags":"Residence, Dorm, Fletcher, building","zip":"02155","occupants":[]},{"campus":"medford","name":"Blakeslee House","tags":"Fletcher, Law, Diplomacy, building","address1":"132 Curtis Street","city":"Somerville","zip":"02144","locationid":"m065","emphasis":"1","latlng":"42.40773,-71.124553","occupants":[]},{"locationid":"m005","emphasis":"1","name":"Bolles House","address1":"226 College Avenue","city":"Somerville","zip":"02144","phone":"6176273770","latlng":"42.40511,-71.117661","campus":"medford","tags":"LGBT, Lesbian Gay Bisexual Transgender Center, building","website":"http://ase.tufts.edu/lgbt/","occupants":[{"name":"LGBT Center","website":"http://ase.tufts.edu/lgbt/","email":"lgbt@tufts.edu","phone":"6176273770","locwithin":"Second and 3rd floor"},{"name":"Latino Center","website":"http://ase.tufts.edu/latinocenter/","email":"latinocenter@tufts.edu","phone":"6176273363","locwithin":"First floor"}]},{"accessibility":2,"accessibilityrestroom":0,"address1":"8 Upper Campus Road","campus":"medford","city":"Medford","emphasis":"4","imageurl":"brakerhall-wide.png","latlng":"42.407401,-71.118133","locationid":"m007","name":"Braker Hall","phone":"6176273560","tags":"Economics, accessible-assistance, building","thumbnail":"brakerhall-th.png","website":"http://ase.tufts.edu/econ/","zip":"02155","occupants":[{"name":"Economics - A&S","website":"http://ase.tufts.edu/econ/","email":"Linda.Casey@tufts.edu","phone":"6176273560","locwithin":"First floor, Room 11"}]},{"accessibility":2,"accessibilityrestroom":0,"address1":"504 Boston Avenue","campus":"medford","city":"Medford","emphasis":"1","latlng":"42.405744,-71.115631","locationid":"m008","name":"Bray Laboratory","tags":"accessible-assistance, building","zip":"02155","occupants":[]},{"locationid":"m099","emphasis":"1","name":"Bromfield House","address1":"16 Dearborn Road","city":"Somerville","zip":"02144","phone":"6176273380","latlng":"42.404889,-71.116314","campus":"medford","tags":"Educational &amp; Scholarly Technology Services, building","website":"https://it.tufts.edu/ests","occupants":[]},{"accessibility":2,"accessibilityrestroom":0,"address1":"503 Boston Avenue","campus":"medford","city":"Medford","emphasis":"4","latlng":"42.405482,-71.116415","locationid":"m002","name":"Bromfield-Pearson","phone":"6176273235","tags":"Mathematics, graduation-ceremony, accessible-assistance, building","website":"http://math.tufts.edu/","zip":"02155","occupants":[{"locwithin":"Room 102","name":"Mathematics - A&S","phone":"61762732345","website":"http://math.tufts.edu/"}]},{"accessibility":1,"accessibilityrestroom":0,"address1":"170 Packard Avenue","campus":"medford","city":"Medford","emphasis":"4","latlng":"42.407941,-71.121509","locationid":"m151","name":"Cabot Center","tags":"Fletcher, International Relations, accessible-full, building","zip":"02155","occupants":[{"name":"International Relations","website":"http://ase.tufts.edu/ir/","email":"internationalrelations@tufts.edu","phone":"6176272776","locwithin":"Sixth floor, Room 60"},{"name":"Fares Center for Eastern Mediterranean Studies","website":"http://farescenter.tufts.edu/","email":"Fares-center@tufts.edu","phone":"6176276560","locwithin":"Mugar 129"},{"name":"Academic Support-Fletcher","website":"http://fletcher.tufts.edu/Academic/Registrar-Office","email":"nora.moser@tufts.edu","phone":"6176272405","locwithin":"Second floor"},{"name":"Student Services - Fletcher","email":"Sarah.Strong@tufts.edu","phone":"6176275997","locwithin":"Fourth floor"}]},{"accessibility":2,"accessibilityrestroom":0,"address1":"46 Professors Row","campus":"medford","city":"Medford","emphasis":"1","latlng":"42.405551,-71.120426","locationid":"m033","name":"Campus Bookstore","phone":"6176273468","tags":"Textbooks, supplies, apparel, clothing, books, accessible-assistance, building","website":"http://tufts.bncollege.com/webapp/wcs/stores/servlet/BNCBHomePage?storeId=20051&catalogId=10001&langId=-1","zip":"02155","occupants":[]},{"locationid":"m158","emphasis":"5","zip":"02144","name":"Campus Center","address1":"44 Professors Row","city":"Somerville","accessibility":2,"latlng":"42.405626,-71.119824","campus":"medford","tags":"Elizabeth Van Huysen Mayer Campus Center, dining, atm, hotung cafe, information booth, ping-pong, pool table, Jumbocash Machine, cash machine, food, accessible-assistance, building","website":"http://ocl.tufts.edu/mayer-campus-center/","accessibilityrestroom":0,"occupants":[{"name":"Student Activities - A&S","website":"http://ocl.tufts.edu/","email":"ocl@tufts.edu","phone":"6176273212"},{"name":"Campus Center - Dining Services","website":"http://dining.tufts.edu/locations-hours/overview/commons-deli-grill/","email":"sabrina.mccarthy@tufts.edu","phone":"6176275204"}]},{"address1":"520 Boston Avenue","campus":"medford","city":"Medford","emphasis":"1","latlng":"42.405326,-71.115305","locationid":"m085","name":"Central Services","tags":"building","zip":"02155","occupants":[{"email":"linda.snyder@tufts.edu","locwithin":"Fourth floor","name":"Office of Vice President of Operations","phone":"6176273334","website":"http://operations.tufts.edu/"},{"email":"linda.bratton@tufts.edu","locwithin":"Second floor","name":"Construction Management","phone":"6176273371"},{"name":"Facilities - Medford","phone":"6176273496","website":"http://operations.tufts.edu/facilities/contact-info/"},{"name":"Facilities Medford - Trades A","phone":"6176273496","website":"http://operations.tufts.edu/facilities/contact-info/"},{"name":"Facilities Medford - Trades B","phone":"6176273496","website":"http://operations.tufts.edu/facilities/contact-info/"},{"name":"Facilities Medford - Workcrew","phone":"6176273496","website":"http://operations.tufts.edu/facilities/contact-info/"}]},{"locationid":"m068","emphasis":"1","latlng":"42.404751,-71.123544","campus":"medford","name":"Chandler House","tags":"Spanish language, residence, building","address1":"125 Powderhouse Boulevard","city":"Somerville","zip":"02144","occupants":[]},{"accessibility":2,"accessibilityrestroom":0,"address1":"40 Talbot Avenue","campus":"medford","city":"Medford","emphasis":"1","latlng":"42.404367,-71.118973","locationid":"m019c","name":"Cohen Auditorium","tags":"Plays, Performance, Lecture, graduation-ceremony, accessible-assistance, building","zip":"02155","occupants":[]},{"accessibility":2,"accessibilityrestroom":0,"address1":"54 Talbot Avenue","campus":"medford","city":"Medford","emphasis":"1","latlng":"42.404715,-71.120025","locationid":"m036","name":"Costume Shop","tags":"accessible-assistance, building","zip":"02155","occupants":[]},{"accessibility":2,"accessibilityrestroom":0,"address1":"474 Boston Avenue","campus":"medford","city":"Medford","emphasis":"1","latlng":"42.406959,-71.116527","locationid":"m039","name":"Curtis Hall","tags":"dining, Brown and Brew, MAB Lab, Media Advisory Board, Tufts Observer, Tufts Daily, WMFO, TUTV, food, post office, accessible-assistance, building","zip":"02155","occupants":[{"email":"arthur.rigordaeva@tufts.edu","locwithin":"First floor","name":"Brown and Brew","phone":"6176275748","website":"http://dining.tufts.edu/locations-hours/overview/brown-brew-coffee-house/"},{"email":"ceeo@tufts.edu","locwithin":"Basement","name":"Center for Engineering Education and Outreach","phone":"6176275888","website":"http://ceeo.tufts.edu/"}]},{"accessibility":2,"accessibilityrestroom":0,"address1":"165 Packard Avenue","campus":"medford","city":"Medford","emphasis":"1","latlng":"42.407804,-71.120892","locationid":"m001","name":"Dana Laboratory","tags":"Biology Lab, accessible-assistance, building","thumbnail":"dana-th.png","zip":"02155","occupants":[]},{"accessibility":2,"accessibilityrestroom":1,"address1":"419 Boston Avenue","campus":"medford","city":"Medford","emphasis":"5","imageurl":"dowlinghall-wide.png","latlng":"42.408529,-71.1183","locationid":"m023","name":"Dowling Hall","phone":"6176272000","tags":"administration, atm, Academic Resource Center, Visitor Parking, Bursar's Office, Career Planning Center, Dean of Students, University Police, Registrar's Office, Student Employment Office, information booth, campus tours, Admissions Visitor Center, accessible-assistance, accessible-restroom, building","thumbnail":"dowlinghall-th.png","website":"http://uss.tufts.edu/stuServ/","zip":"02155","occupants":[{"name":"Summer Session - A&S","website":"http://ase.tufts.edu/summer/","email":"summer@tufts.edu","phone":"6176272000"},{"name":"Public Safety","website":"http://publicsafety.tufts.edu/","email":"kevin.maguire@tufts.edu","phone":"6176273502","locwithin":"First floor"},{"name":"Public Safety Affairs - Medford","website":"http://publicsafety.tufts.edu/","email":"duane.weisse@tufts.edu","phone":"6176273030","locwithin":"First floor"},{"name":"Financial Services","website":"http://uss.tufts.edu/finserv/","email":"studentservices@ase.tufts.edu","phone":"6176272000","locwithin":"Seventh floor"},{"name":"Office of the Dean of Undergraduate Education","website":"http://uss.tufts.edu/undergradEducation/","email":"james.glaser@tufts.edu","phone":"6176274239","locwithin":"Seventh floor"},{"name":"Programs Abroad","website":"http://uss.tufts.edu/studyabroad/","email":"sheila.bayne@tufts.edu","phone":"6176272000"},{"name":"Student Services Center - A&S","website":"http://uss.tufts.edu/stuserv/","email":"studentservices@ase.tufts.edu","phone":"6176272000"},{"name":"Admissions - AS&E","website":"http://admissions.tufts.edu/","email":"admissions.inquiry@ase.tufts.edu","phone":"6176273170"}]},{"accessibility":2,"accessibilityrestroom":0,"address1":"6 The Green","campus":"medford","city":"Medford","emphasis":"1","imageurl":"easthall-wide.png","latlng":"42.40767,-71.118745","locationid":"m038","name":"East Hall","tags":"English, History, accessible-assistance, building","thumbnail":"easthall-th.png","zip":"02155","occupants":[{"name":"History - A&S","website":"http://ase.tufts.edu/history/","email":"Mary-Ann.Hagopian@tufts.edu","phone":"6176272783","locwithin":"Room 10"},{"name":"English - A&S","website":"http://ase.tufts.edu/english/","email":"english@tufts.edu","phone":"6176273459","locwithin":"Room 210"}]},{"accessibility":2,"accessibilityrestroom":1,"address1":"5 The Green","campus":"medford","city":"Medford","emphasis":"1","imageurl":"eatonhall-wide.png","latlng":"42.406833,-71.118683","locationid":"m010","name":"Eaton Hall","tags":"ITS, Computing, Computers, accessible-assistance, accessible-restroom, building","thumbnail":"eatonhall-th.png","zip":"02155","occupants":[{"name":"Anthropology","website":"http://ase.tufts.edu/anthropology/","email":"jamie.gorman@tufts.edu","phone":"6176276528","locwithin":"302 Eaton Hall"},{"name":"Religion - A&S","website":"http://ase.tufts.edu/religion/","email":"jamie.gorman@tufts.edu","phone":"6176276528","locwithin":"302 Eaton Hall"},{"name":"Classics - A&S","website":"http://ase.tufts.edu/classics/","email":"classics@tufts.edu","phone":"6176273213","locwithin":"Third floor"},{"name":"American Studies","website":"http://ase.tufts.edu/amstud/","email":"kathy.spagnoli@tufts.edu","phone":"6176272311","locwithin":"Bottom floor"},{"name":"Center for Interdisciplinary Studies","website":"http://cis.tufts.edu/","email":"andrea.carlino@tufts.edu","phone":"6176275447","locwithin":"First floor, Room 11"},{"name":"Sociology - A&S","website":"http://ase.tufts.edu/sociology/","email":"john.libassi@tufts.edu","phone":"6176273561","locwithin":"First floor, Room 11"},{"name":"Women's, Gender, and Sexuality Studies","website":"http://ase.tufts.edu/wgss/default.aspx","email":"WomensStudies@tufts.edu","phone":"6176272955","locwithin":"Room 106"},{"name":"Peace & Justice Study","website":"http://pjs.tufts.edu/default.aspx","email":"dale.bryan@tufts.edu","phone":"6176272261","locwithin":"First floor"},{"name":"Perseus Digital Library Project","website":"http://www.perseus.tufts.edu/hopper/","email":"lisa.cerrato@tufts.edu","phone":"6176273830","locwithin":"First Floor, 134C"},{"name":"Archaeology Program","website":"http://ase.tufts.edu/classics/undergrad/majorArchaeology.htm","email":"archaeology@tufts.edu","phone":"6176273213"}]},{"accessibility":2,"accessibilityrestroom":1,"address1":"105 College Avenue","campus":"medford","city":"Medford","emphasis":"1","latlng":"42.410473,-71.114624","locationid":"m012a","name":"Eliot-Pearson Child Development Center","tags":"accessible-assistance, accessible-restroom, building","zip":"02155","occupants":[]},{"accessibility":2,"accessibilityrestroom":0,"address1":"105 College Avenue","campus":"medford","city":"Medford","emphasis":"4","latlng":"42.410278,-71.114372","locationid":"m012b","name":"Eliot-Pearson Children's School","tags":"accessible-assistance, building","zip":"02155","occupants":[]},{"address1":"21-23 Fairmount Street","campus":"medford","city":"Medford","emphasis":"4","latlng":"42.409956,-71.121212","locationid":"m070","name":"Fairmont House","tags":"building","zip":"02155","occupants":[]},{"locationid":"m059","emphasis":"4","latlng":"42.405465,-71.123063","campus":"medford","name":"Hall House","tags":"Jewish culture, residence, building","address1":"98 Packard Avenue","city":"Somerville","zip":"02144","occupants":[]},{"accessibility":1,"accessibilityrestroom":0,"address1":"160 Packard Avenue","campus":"medford","city":"Medford","emphasis":"1","latlng":"42.407692,-71.121613","locationid":"m014","name":"Goddard Hall","tags":"Fletcher, Ginn, library, accessible-full, building","zip":"02155","occupants":[{"name":"UA - Fletcher Development & Alumni Relations","website":"http://fletcher.tufts.edu/alumni/","email":"fletcheralum@tufts.edu","phone":"6176274573"}]},{"accessibility":2,"accessibilityrestroom":1,"address1":"220 Packard Avenue","campus":"medford","city":"Medford","emphasis":"1","latlng":"42.409322,-71.120877","locationid":"m020","name":"Granoff Family Hillel Center","phone":"6176273242","tags":"accessible-assistance, accessible-restroom, building","website":"http://www.tuftshillel.org/","zip":"02155","occupants":[]},{"address1":"17 Chetwynd Road","campus":"medford","city":"Somerville","emphasis":"4","latlng":"42.408305,-71.124707","locationid":"m060","name":"Hayes House","tags":"building","zip":"02144","occupants":[]},{"phone":"6176273350","accessibility":2,"locationid":"m032","emphasis":"5","campus":"medford","tags":"Hooper Infirmary, doctor, sick, illness, accessible-assistance, building","zip":"02144","latlng":"42.407146,-71.123748","website":"http://ase.tufts.edu/healthservice/","accessibilityrestroom":0,"name":"Health Service","address1":"124 Professors Row","city":"Somerville","occupants":[]},{"address1":"28 Capen Street","campus":"medford","city":"Medford","emphasis":"1","latlng":"42.411015,-71.123962","locationid":"m072","name":"McCollester House","tags":"dormitory, residence, building","zip":"02155","occupants":[]},{"address1":"66 Colby Street","campus":"medford","city":"Medford","emphasis":"1","latlng":"42.405398,-71.114600","locationid":"m102","name":"Scene Shop","tags":"building","zip":"02155","occupants":[]},{"address1":"14 Edison Avenue","campus":"medford","city":"Medford","emphasis":"4","latlng":"42.410459,-71.123823","locationid":"m057","name":"Tousey House","tags":"building","zip":"02155","occupants":[]},{"address1":"100 North Hill Road","campus":"medford","city":"Medford","emphasis":"1","latlng":"42.407857,-71.118217","locationid":"m063","name":"Central Heating Building","tags":"building","zip":"02155","occupants":[]},{"campus":"medford","name":"Hillside House","tags":"building","address1":"32 Dearborn Road","city":"Somerville","zip":"02144","locationid":"m061","emphasis":"4","latlng":"42.405013,-71.117112","occupants":[]},{"address1":"10 Winthrop Street","campus":"medford","city":"Medford","emphasis":"1","latlng":"42.409575,-71.123364","locationid":"m125","name":"10 Winthrop Street","phone":"","tags":"building, residence","zip":"02155","occupants":[]},{"address1":"8 Winthrop Street","campus":"medford","city":"Medford","emphasis":"4","latlng":"42.409446,-71.123561","locationid":"m129","name":"Carpenter House","tags":"residence, building","zip":"02155","occupants":[]},{"address1":"10-80 North Hill Road","campus":"medford","city":"Medford","emphasis":"1","latlng":"42.408747,-71.119007","locationid":"m155","name":"Hallowell Hall","tags":"dormitory, residence, building","zip":"02155","occupants":[]},{"address1":"10-80 North Hill Road","campus":"medford","city":"Medford","emphasis":"1","latlng":"42.409086,-71.119152","locationid":"m153","name":"Hillside Housing 1","tags":"dormitory, residence, building","zip":"02155","occupants":[]},{"address1":"10-80 North Hill Road","campus":"medford","city":"Medford","emphasis":"1","latlng":"42.408893,-71.119541","locationid":"m154","name":"Hillside Housing 2","tags":"dormitory, residence, building","zip":"02155","occupants":[]},{"address1":"190 Packard Avenue","campus":"medford","city":"Medford","emphasis":"1","imageurl":"houstonhall-wide.png","latlng":"42.408237,-71.121993","locationid":"m080","name":"Houston Hall","tags":"dormitory, residence, building","thumbnail":"houstonhall-th.png","zip":"02155","occupants":[]},{"address1":"175 Packard Avenue","campus":"medford","city":"Medford","emphasis":"1","imageurl":"westhall-wide.png","latlng":"42.408284,-71.120336","locationid":"m037","name":"West Hall","tags":"dormitory, residence, building","thumbnail":"westhall-th.png","zip":"02155","occupants":[]},{"address1":"161 College Avenue","campus":"medford","city":"Medford","emphasis":"4","latlng":"42.408393,-71.116305","locationid":"m026","name":"Halligan Hall","tags":"Athletics Department, Electrical Engineering, Computer Engineering, building","zip":"02155","occupants":[{"name":"Computer Science","website":"http://www.cs.tufts.edu/","email":"csadmin@cs.tufts.edu","phone":"6176272225","locwithin":"Room 102"},{"name":"Electrical & Computer Engineer","website":"http://www.ece.tufts.edu/","email":"yvette.landry@tufts.edu","phone":"6176273217","locwithin":"Room 101"}]},{"accessibility":2,"accessibilityrestroom":1,"address1":"58 Winthrop Street","campus":"medford","city":"Medford","emphasis":"4","latlng":"42.411374,-71.122181","locationid":"m189","name":"Interfaith Center","tags":"accessible-assistance, accessible-restroom, building","zip":"02155","occupants":[]},{"accessibility":2,"accessibilityrestroom":0,"address1":"40 Talbot Avenue","campus":"medford","city":"Medford","emphasis":"1","latlng":"42.404577,-71.118769","locationid":"m019d","name":"Leir Hall","tags":"accessible-assistance, building","zip":"02155","occupants":[]},{"accessibility":2,"accessibilityrestroom":1,"address1":"10 Upper Campus Road","campus":"medford","city":"Medford","emphasis":"1","latlng":"42.407224,-71.117832","locationid":"m015","name":"Lincoln Filene Hall","tags":"accessible-assistance, accessible-restroom, building","zip":"02155","occupants":[{"name":"Lincoln Filene Center","website":"http://activecitizen.tufts.edu/communitypartnerships/","email":"Shirley.Mark@tufts.edu","phone":"6176273453"},{"name":"Tisch College","website":"http://activecitizen.tufts.edu/","email":"activecitizen@tufts.edu","phone":"6176273453"}]},{"campus":"medford","tags":"accessible-assistance, building","accessibilityrestroom":0,"locationid":"m016","emphasis":"1","name":"Michael Laboratory","address1":"62 Talbot Avenue","city":"Somerville","zip":"02144","latlng":"42.404724,-71.120773","accessibility":2,"occupants":[]},{"campus":"medford","name":"Milne House","tags":"Latino, Hispanic culture, building","address1":"8-10 Whitfield Road","city":"Somerville","zip":"02144","locationid":"m046","emphasis":"1","latlng":"42.405629,-71.123272","occupants":[]},{"accessibility":2,"accessibilityrestroom":1,"address1":"14 Upper Campus Road","campus":"medford","city":"Medford","emphasis":"1","latlng":"42.406559,-71.117849","locationid":"m017","name":"Miner Hall","tags":"Philosophy, accessible-assistance, accessible-restroom, building","zip":"02155","occupants":[{"name":"Center for Cognitive Studies","website":"http://ase.tufts.edu/cogstud/","phone":"6176273297","locwithin":"Main Office: Room 115; Visiting Fellows and Postdocs: Room 111"},{"name":"Philosophy - A&S","website":"http://ase.tufts.edu/philosophy/","email":"philosophy@tufts.edu","phone":"6176273230","locwithin":"Second floor"}]},{"accessibility":1,"accessibilityrestroom":1,"address1":"160R Packard Avenue","campus":"medford","city":"Medford","emphasis":"1","latlng":"42.407854,-71.122177","locationid":"m018","name":"Mugar Hall","phone":"6176275099","tags":"dining, food, accessible-full, accessible-restroom, building","website":"http://dining.tufts.edu/locations-hours/overview/mugar-cafeacute-fletcher-graduate-school-dining/","zip":"02155","occupants":[{"name":"Mugar Dining","website":"http://dining.tufts.edu/locations-hours/overview/mugar-cafeacute-fletcher-graduate-school-dining/","email":"dante.goytizolo@tufts.edu ","phone":"6176275099"}]},{"accessibility":2,"accessibilityrestroom":0,"address1":"179 College Avenue","campus":"medford","city":"Medford","emphasis":"1","latlng":"42.407824,-71.116534","locationid":"m084","name":"Office Services","tags":"accessible-assistance, building","zip":"02155","occupants":[]},{"accessibility":2,"accessibilityrestroom":1,"address1":"180 Packard Avenue","campus":"medford","city":"Medford","emphasis":"4","latlng":"42.408332,-71.121229","locationid":"m086","name":"Olin Center","tags":"Languages, Spanish, German, French, Russian, Arabic, Japanese, Chinese, accessible-assistance, accessible-restroom, building","thumbnail":"olin-th.png","zip":"02155","occupants":[{"name":"Romance Languages - A&S","website":"http://ase.tufts.edu/romlang/","email":"romancelanguages@tufts.edu","phone":"6176273289","locwithin":"Second floor, Room 2"},{"name":"German, Russian, and Asian Languages","website":"http://ase.tufts.edu/grall/","email":"vicky.cirrone@tufts.edu","phone":"6176273442","locwithin":"Third floor, Room 32"}]},{"accessibility":1,"accessibilityrestroom":1,"address1":"4 The Green","campus":"medford","city":"Medford","emphasis":"1","imageurl":"packardhall-wide.png","latlng":"42.407955,-71.119359","locationid":"m034","name":"Packard Hall","tags":"administration, accessible-full, accessible-restroom, building","thumbnail":"packardhall-th.png","zip":"02155","occupants":[{"name":"Political Science - A&S","website":"http://ase.tufts.edu/polsci/","email":"politicalscience@tufts.edu","phone":"6176273465"}]},{"address1":"12 Upper Campus Road","campus":"medford","city":"Medford","emphasis":"4","latlng":"42.406832,-71.117664","locationid":"m027","name":"Paige Hall","phone":"6176273244","tags":"Education, building","website":"http://ase.tufts.edu/education/","zip":"02155","occupants":[{"name":"Education - A&S","website":"http://ase.tufts.edu/education/","email":"Lori.jackson@tufts.edu","phone":"6176273244"}]},{"latlng":"42.404908,-71.120487","accessibility":2,"campus":"medford","tags":"Pearson Hall, accessible-assistance, building","accessibilityrestroom":0,"locationid":"m009","emphasis":"4","name":"Pearson Chemical Laboratory","address1":"62 Talbot Avenue","city":"Somerville","zip":"02144","occupants":[{"name":"Chemistry - A&S","website":"http://chem.tufts.edu/","phone":"6176273441"}]},{"accessibility":2,"accessibilityrestroom":1,"address1":"20 Talbot Avenue","campus":"medford","city":"Medford","emphasis":"4","latlng":"42.404578,-71.118388","locationid":"m195","name":"Perry and Marty Granoff Music Center","phone":"6176273679","tags":"Music, performance, concert, Distler Performance Hall, accessible-assistance, accessible-restroom, building","website":"http://as.tufts.edu/music/musiccenter/default.aspx","zip":"02155","occupants":[{"name":"Music - A&S","website":"http://as.tufts.edu/music/default.aspx","email":"musicadmin@tufts.edu","phone":"6176273564","locwithin":"First floor"}]},{"accessibility":2,"accessibilityrestroom":0,"address1":"490 Boston Avenue","campus":"medford","city":"Medford","emphasis":"1","latlng":"42.406314,-71.116086","locationid":"m021","name":"Psychology Building","phone":"6176273523","tags":"accessible-assistance, building","website":"http://ase.tufts.edu/psychology/","zip":"02155","occupants":[]},{"accessibility":2,"accessibilityrestroom":0,"address1":"15 Lower Campus Road","campus":"medford","city":"Medford","emphasis":"1","latlng":"42.404445,-71.11873","locationid":"m019e","name":"Remis Sculpture Court","tags":"accessible-assistance, building","zip":"02155","occupants":[]},{"accessibility":2,"accessibilityrestroom":0,"address1":"212 College Avenue","campus":"medford","city":"Medford","emphasis":"1","latlng":"42.40579,-71.117062","locationid":"m022","name":"Robinson Hall","tags":"Engineering, accessible-assistance, building","zip":"02155","occupants":[{"name":"Physics & Astronomy - A&S","website":"https://wikis.uit.tufts.edu/confluence/display/physics/Home","email":"gayle.grant@tufts.edu","phone":"6176273029","locwithin":"Room 257"}]},{"latlng":"42.40737,-71.124789","accessibility":1,"campus":"medford","tags":"accessible-full, building","accessibilityrestroom":0,"locationid":"m049","emphasis":"1","name":"Sawyer House","address1":"120 Curtis Street","city":"Somerville","zip":"02144","occupants":[{"name":"Counseling Center","website":"http://ase.tufts.edu/counseling/","email":"j.ross@tufts.edu","phone":"6176273360"}]},{"accessibility":2,"accessibilityrestroom":1,"address1":"4 Colby Street","campus":"medford","city":"Medford","emphasis":"4","latlng":"42.403589,-71.113161","locationid":"m028","name":"Science and Technology Center","tags":"Engineering, Biology, Laboratory, SciTech, accessible-assistance, accessible-restroom, building","zip":"02155","occupants":[{"name":"Biomedical Engineering","website":"http://engineering.tufts.edu/bme/","email":"BME@tufts.edu","phone":"6176272580","locwithin":"Second floor, Room 229"},{"name":"Chemical Engineering","website":"http://engineering.tufts.edu/chbe/","email":"ChBE@tufts.edu","phone":"6176273900","locwithin":"First floor, Room 148"},{"name":"Center For Science and Mathematics Teaching","website":"http://ase.tufts.edu/csmt/","email":"csmt@tufts.edu","phone":"6176272825","locwithin":"Second floor, Room 263"},{"name":"High-Energy Physics","locwithin":"First floor, Room 105"}]},{"locationid":"m081","emphasis":"1","accessibility":2,"campus":"medford","tags":"accessible-assistance, accessible-restroom, building","zip":"02144","latlng":"42.405653,-71.120924","name":"Start House","address1":"17 Latin Way","city":"Somerville","accessibilityrestroom":1,"occupants":[]},{"campus":"medford","tags":"Tufts Administration Building, accessible-assistance, accessible-restroom, building","accessibilityrestroom":1,"locationid":"m030","emphasis":"5","name":"TAB","address1":"169 Holland Street","city":"Somerville","zip":"02144","latlng":"42.401206,-71.125335","accessibility":2,"occupants":[{"name":"Risk Management","website":"http://finance.tufts.edu/risk-ins/","email":"David.Slater@tufts.edu","phone":"6176273981"},{"name":"Tufts Technology Services","website":"http://it.tufts.edu/","email":"uitsc@tufts.edu","phone":"6176273376"}]},{"accessibility":2,"accessibilityrestroom":1,"address1":"35 Professors Row","campus":"medford","city":"Medford","emphasis":"5","imageurl":"tischlibrary-wide.png","latlng":"42.406242,-71.118857","locationid":"m024","name":"Tisch Library","phone":"6176273347","tags":"Information Technology Services - ITS, Tower Cafe, accessible-assistance, accessible-restroom, building","thumbnail":"tischlibrary-th.png","website":"http://www.library.tufts.edu/Tisch/","zip":"02155","occupants":[{"name":"Tisch Library","website":"http://www.library.tufts.edu/tisch/","email":"tischadmin@tufts.edu","phone":"6176273345"},{"name":"Digital Collections & Archives","website":"http://sites.tufts.edu/dca/","email":"archives@tufts.edu","phone":"6176273737","locwithin":"Level G"},{"name":"University Library Services","website":"http://ase.tufts.edu/its/","email":"tulips@tufts.edu","locwithin":"First floor"},{"name":"Arts & Sciences Information Technology","website":"http://ase.tufts.edu/its/","email":"tulips@tufts.edu","locwithin":"First floor"},{"name":"Tower Cafe","website":"http://dining.tufts.edu/locations-hours/overview/the-tower-caf-at-tisch-library/","email":"arthur.rigordaeva@tufts.edu","phone":"6176273841","locwithin":"Inside the Tower"}]},{"locationid":"m076","emphasis":"4","latlng":"42.405974,-71.123247","campus":"medford","name":"Wyeth House","tags":"German Culture, Residence, building","address1":"21 Whitfield Road","city":"Somerville","zip":"02144","occupants":[]},{"latlng":"42.403336,-71.119539","accessibility":2,"campus":"medford","tags":"accessible-assistance, building","accessibilityrestroom":0,"locationid":"m162","emphasis":"1","name":"Baronian Field House","address1":"20 Lower Campus Road","city":"Somerville","zip":"02144","occupants":[]},{"accessibility":2,"accessibilityrestroom":0,"address1":"161 College Avenue","campus":"medford","city":"Medford","emphasis":"4","latlng":"42.408762,-71.116011","locationid":"m031","name":"Cousens Gym","tags":"gymnasium, work out, exercise, fitness, sport, graduation-ceremony, accessible-assistance, building","zip":"02155","occupants":[]},{"accessibility":2,"accessibilityrestroom":1,"address1":"161 College Avenue","campus":"medford","city":"Medford","emphasis":"4","latlng":"42.409711,-71.115189","locationid":"m184","name":"Gantcher Family Sports and Convocation Center","tags":"Gym, Gymnasium, Workout, Exercise, Track, Pool, Athletics, graduation-ceremony, accessible-assistance, accessible-restroom, building","zip":"02155","occupants":[]},{"accessibility":1,"accessibilityrestroom":0,"address1":"161 College Ave","campus":"medford","city":"Medford","emphasis":"5","latlng":"42.409081,-71.115584","locationid":"m202","name":"Steve Tisch Sports and Fitness Center","tags":"Gym, Gymnasium, Workout, Exercise, Track, Pool, Athletics, swimming, accessible-full, building","zip":"02155","occupants":[]},{"locationid":"m040","emphasis":"1","accessibility":2,"campus":"medford","tags":"Dance, dancing, gymnasium, accessible-assistance, building, athletics","zip":"02144","latlng":"42.404636,-71.119621","name":"Jackson Gym","address1":"50 Talbot Avenue","city":"Somerville","accessibilityrestroom":0,"occupants":[]},{"campus":"medford","tags":"sorority, greek, residence, aopi, building","website":"http://aoiidelta.wordpress.com/","locationid":"m142","emphasis":"1","name":"Alpha Omicron Pi","address1":"25 Whitfield Road","city":"Somerville","zip":"02144","latlng":"42.40614,-71.123793","occupants":[]},{"campus":"medford","name":"Alpha Phi","tags":"sorority, greek, residence, building","address1":"14 Sawyer Avenue","city":"Somerville","zip":"02144","locationid":"m111","emphasis":"1","latlng":"42.406213,-71.123165","occupants":[]},{"campus":"medford","name":"Alpha Tau Omega","tags":"fraternity, greek, residence, ato, building","address1":"134 Professors Row","city":"Somerville","zip":"02144","locationid":"m136","emphasis":"1","latlng":"42.4074,-71.124243","occupants":[]},{"campus":"medford","tags":"sorority, greek, ChiO, Chi O, residence, building","zip":"02144","latlng":"42.406915,-71.12305","name":"Chi Omega","website":"http://chaptersites.chiomega.com/default.aspx?site=30","address1":"106 Professors Row","city":"Somerville","locationid":"m135","emphasis":"1","occupants":[]},{"locationid":"m137","emphasis":"1","latlng":"42.406745,-71.122649","campus":"medford","name":"Delta Tau Delta: Beta Mu","tags":"fraternity, greek, residence, aepi, building","address1":"98 Professors Row","city":"Somerville","zip":"02144","occupants":[]},{"campus":"medford","name":"Delta Upsilon","tags":"fraternity, greek, DU, residence, building","address1":"114 Professors Row","city":"Somerville","zip":"02144","locationid":"m133","emphasis":"1","latlng":"42.407041,-71.123342","occupants":[]},{"locationid":"m109","emphasis":"1","latlng":"42.406684,-71.122359","campus":"medford","name":"Sigma Nu","tags":"fraternity, greek, residence, building","address1":"92 Professors Row","city":"Somerville","zip":"02144","occupants":[]},{"latlng":"42.40556,-71.123025","name":"Theta Chi","website":"http://tuftsthetachi.com/","address1":"100 Packard Avenue","city":"Somerville","locationid":"m138","emphasis":"1","campus":"medford","tags":"fraternity, greek, residence, building","zip":"02144","occupants":[]},{"locationid":"z003","emphasis":"1","latlng":"42.406092,-71.122037","campus":"medford","name":"Theta Delta Chi","tags":"fraternity, greek, residence, building","address1":"123 Packard Avenue","city":"Somerville","zip":"02144","occupants":[]},{"campus":"medford","tags":"fraternity, greek, residence, zbt","zip":"02144","latlng":"42.406349,-71.12253","name":"Zeta Beta Tau","website":"http://zbtomicron.com/newsite/index.php","address1":"126 Packard Avenue","city":"Somerville","locationid":"m105","emphasis":"1","occupants":[]},{"name":"Zeta Psi","website":"http://kappazete.com/","address1":"80 Professors Row","city":"Somerville","locationid":"m139","emphasis":"1","campus":"medford","tags":"fraternity, greek, residence","zip":"02144","latlng":"42.40642,-71.121778","occupants":[]},{"address1":"177 Corporation Way","campus":"medford","city":"Medford","emphasis":"4","latlng":"42.410668,-71.073947","locationid":"m197","name":"William A. Shoemaker Boathouse at Tufts University","tags":"crew, building","zip":"02155","occupants":[]},{"address1":"474 Boston Ave","campus":"medford","city":"Medford","emphasis":"4","latlng":"42.406793,-71.116517","locationid":"mbb","name":"Brown & Brew","tags":"food, dining, coffee, building","website":"http://dining.tufts.edu/locations-hours/overview/brown-brew-coffee-house/","zip":"02155","occupants":[]},{"zip":"02144","campus":"medford","tags":"dining, food, accessible-assistance, building","latlng":"42.40523,-71.121403","name":"Dewick-MacPhie Dining Hall","address1":"25 Latin Way","city":"Somerville","website":"http://dining.tufts.edu/locations-hours/overview/dewickmacphie-dining-center/","accessibilityrestroom":0,"phone":"6176273462","accessibility":2,"locationid":"m078","emphasis":"4","occupants":[{"name":"Central Kitchen and Bakery","website":"http://dining.tufts.edu/","email":"ja.fisher@tufts.edu","phone":"6176272067","locwithin":"Lower Level"},{"name":"Dewick Dining","website":"http://dining.tufts.edu/locations-hours/overview/dewickmacphie-dining-center/","email":"john.beaulac@tufts.edu","phone":"6176273462","locwithin":"Upper Level"}]},{"address1":"161 Packard Avenue","campus":"medford","city":"Medford","emphasis":"4","imageurl":"giffordhouse-wide.png","latlng":"42.407144,-71.121339","locationid":"m045","name":"Gifford House","tags":"Tony Monaco, President, building","thumbnail":"giffordhouse-th.png","website":"http://president.tufts.edu/","zip":"02155","occupants":[]},{"address1":"3 The Green","campus":"medford","city":"Medford","emphasis":"1","imageurl":"goddard-chapel-wide.png","latlng":"42.40715,-71.119444","locationid":"m042","name":"Goddard Chapel","tags":"Religion, Services, Chaplaincy, graduation-ceremony, building","thumbnail":"goddardchapel-th.png","website":"http://chaplaincy.tufts.edu/goddard/","zip":"02155","occupants":[{"name":"Chaplain's Office","website":"http://chaplaincy.tufts.edu/","email":"Linda.Karpowich@tufts.edu","phone":"6176273427"}]},{"locationid":"m087","emphasis":"4","latlng":"42.404896,-71.116145","campus":"medford","name":"12 Dearborn Road","tags":"building, dormitory, residence","address1":"12 Dearborn Road","city":"Somerville","zip":"02144","occupants":[]},{"campus":"medford","name":"176 Curtis Street","tags":"building, residence","address1":"176 Curtis Street","city":"Somerville","zip":"02144","locationid":"m098","emphasis":"1","latlng":"42.409126,-71.123762","occupants":[]},{"locationid":"m117","emphasis":"1","latlng":"42.408739,-71.124206","campus":"medford","name":"9-11 Sunset Road","tags":"residence, building","address1":"9-11 Sunset Road","city":"Somerville","zip":"02144","occupants":[]},{"campus":"medford","name":"90-94 Curtis Street","tags":"residence, building","address1":"90-94 Curtis Street","city":"Somerville","zip":"02144","locationid":"m090","emphasis":"4","latlng":"42.406503,-71.125391","occupants":[]},{"campus":"medford","name":"Anthony House","tags":"Crafts House, residence, building","address1":"14 Professors Row","city":"Somerville","zip":"02144","locationid":"m056","emphasis":"1","latlng":"42.405361,-71.118375","occupants":[]},{"locationid":"m047","emphasis":"1","latlng":"42.406539,-71.123176","campus":"medford","name":"Bartol House","tags":"Arts House, residence, building","address1":"37 Sawyer Avenue","city":"Somerville","zip":"02144","occupants":[]},{"campus":"medford","name":"Bush Hall","tags":"dormitory, residence, building","address1":"29 Latin Way","city":"Somerville","zip":"02144","locationid":"m064","emphasis":"1","latlng":"42.404941,-71.121716","occupants":[]},{"campus":"medford","name":"Capen House","tags":"African American Culture, African American Center, Africana house, residence, building","address1":"8 Professors Row","city":"Somerville","zip":"02144","locationid":"m066","emphasis":"1","latlng":"42.405379,-71.118034","occupants":[{"name":"African American Center","website":"http://ase.tufts.edu/africana/","email":"africana@tufts.edu","phone":"6176273372","locwithin":"First floor"}]},{"accessibility":0,"accessibilityrestroom":0,"address1":"200 Packard Avenue","campus":"medford","city":"Medford","emphasis":"5","latlng":"42.409183,-71.122699","locationid":"m067","name":"Carmichael Hall","phone":"6176273557","tags":"chase center, dormitory, dining, food, building","website":"http://dining.tufts.edu/locations-hours/overview/carmichael-dining-center/","zip":"02155","occupants":[{"name":"Carmichael Dining Hall","website":"http://dining.tufts.edu/locations-hours/overview/carmichael-dining-center/","email":"peter.kourafalos@tufts.edu","phone":"6176273557","locwithin":"Basement"}]},{"locationid":"m069","emphasis":"4","latlng":"42.406459,-71.122977","campus":"medford","name":"Davies House","tags":"International House, residence, I house, building","address1":"13 Sawyer Avenue","city":"Somerville","zip":"02144","occupants":[]},{"campus":"medford","name":"Dearborn House","tags":"residence, building","address1":"72 Professors Row","city":"Somerville","zip":"02144","locationid":"m108","emphasis":"4","latlng":"42.406321,-71.12137","occupants":[]},{"locationid":"m118","emphasis":"1","latlng":"42.405028,-71.118044","campus":"medford","name":"Fine Arts House","tags":"residence, building","address1":"11 Talbot Avenue","city":"Somerville","zip":"02144","occupants":[{"email":"rosalie.bruno@tufts.edu","name":"Art and Art History","phone":"6176273567","website":"http://ase.tufts.edu/art/"}]},{"campus":"medford","name":"Haskell Hall","tags":"dormitory, residence, building","address1":"43 Latin Way","city":"Somerville","zip":"02144","locationid":"m054","emphasis":"4","latlng":"42.40436,-71.121905","occupants":[]},{"address1":"387 Boston Avenue","campus":"medford","city":"Medford","emphasis":"4","latlng":"42.409494,-71.119696","locationid":"m053","name":"Hill Hall","tags":"dormitory, residence, mail, building","zip":"02155","occupants":[{"name":"Support Services","website":"http://operations.tufts.edu/mailservices/","email":"sheila.chisholm@tufts.edu","phone":"6176275123","locwithin":"Back of building"}]},{"locationid":"m052","emphasis":"4","name":"Hodgdon Hall","address1":"100 Talbot Avenue","city":"Somerville","zip":"02144","phone":"6176272917","latlng":"42.405537,-71.122059","campus":"medford","tags":"dormitory, dining, food, building","website":"http://dining.tufts.edu/locations-hours/overview/hodgdon-goodtogo-takeout/","occupants":[{"name":"Hodgdon Dining","website":"http://dining.tufts.edu/locations-hours/overview/hodgdon-goodtogo-takeout/","email":"cyrus.falconer@tufts.edu","phone":"6176272917","locwithin":"Basement"}]},{"locationid":"m146","emphasis":"1","latlng":"42.403844,-71.121186","campus":"medford","name":"Latin Way Dormitory","tags":"dormitory, residence, building","address1":"40A-F Lower Campus Road","city":"Somerville","zip":"02144","occupants":[]},{"address1":"2 North Hill Road","campus":"medford","city":"Medford","emphasis":"1","latlng":"42.409145,-71.119922","locationid":"m006","name":"Lane Hall","tags":"Art, Geology, building","zip":"02155","occupants":[{"email":"janet.silvano@tufts.edu","locwithin":"Room 101","name":"Earth and Ocean Sciences - A&S","phone":"6176273494","website":"http://eos.tufts.edu/"}]},{"locationid":"m128","emphasis":"4","latlng":"42.404901,-71.122826","campus":"medford","name":"Lewis Hall","tags":"dormitory, residence, building","address1":"75 Packard Avenue","city":"Somerville","zip":"02144","occupants":[]},{"locationid":"m073","emphasis":"1","latlng":"42.406045,-71.120864","campus":"medford","name":"MetCalf Hall","tags":"dormitory, residence, building","address1":"56 Professors Row","city":"Somerville","zip":"02144","occupants":[]},{"address1":"210 Packard Avenue","campus":"medford","city":"Medford","emphasis":"4","imageurl":"millerhall-wide.png","latlng":"42.409047,-71.121296","locationid":"m077","name":"Miller Hall","tags":"dormitory, residence, building","thumbnail":"millerhall-th.png","zip":"02155","occupants":[{"name":"Tufts Institute of the Environment","website":"http://environment.tufts.edu/","email":"TIE@tufts.edu","phone":"6176273645","locwithin":"Garden Level/East Rear Door"},{"name":"Office of Sustainability","website":"http://sustainability.tufts.edu","email":"sustainabilityoffice@tufts.edu","phone":"6176275517","locwithin":"Garden Level/East Rear Door"},{"name":"Environmental Studies Program","website":"http://as.tufts.edu/environmentalstudies","email":"ann.greaney-williams@tufts.edu","phone":"6176273553","locwithin":"Garden Level/East Rear Door"}]},{"address1":"28 Professors Row","campus":"medford","city":"Somerville","emphasis":"1","latlng":"42.405509,-71.11916","locationid":"m051","name":"Richardson House","tags":"women's residence, building","zip":"02144","occupants":[]},{"campus":"medford","name":"Schmalz House","tags":"residence, building","address1":"15 Whitfield Road","city":"Somerville","zip":"02144","locationid":"m050","emphasis":"1","latlng":"42.405879,-71.123102","occupants":[]},{"locationid":"m196","emphasis":"4","name":"Sophia Gordon Hall","address1":"15 Talbot Avenue","city":"Somerville","zip":"02144","latlng":"42.40512,-71.118606","accessibility":2,"campus":"medford","tags":"dormitory, residence, accessible-assistance, accessible-restroom, building","accessibilityrestroom":1,"occupants":[]},{"name":"South Hall","address1":"30 Lower Campus Road","city":"Somerville","accessibilityrestroom":0,"locationid":"m043","emphasis":"4","accessibility":2,"campus":"medford","tags":"dormitory, residence, accessible-assistance, building","zip":"02144","latlng":"42.403593,-71.120392","occupants":[{"name":"Residence Life Office","website":"http://ase.tufts.edu/reslife/","email":"reslife@tufts.edu","phone":"6176273248","locwithin":"First floor"}]},{"locationid":"m048","emphasis":"1","latlng":"42.405126,-71.119239","campus":"medford","name":"Stratton Hall","tags":"dormitory, residence, building","address1":"45 Talbot Avenue","city":"Somerville","zip":"02144","occupants":[]},{"campus":"medford","name":"Tilton Hall","tags":"dormitory, residence, building","address1":"1 Tilton Lane","city":"Somerville","zip":"02144","locationid":"m062","emphasis":"1","latlng":"42.404627,-71.12224","occupants":[]},{"locationid":"m075","emphasis":"4","latlng":"42.4079,-71.124569","campus":"medford","name":"Wilson House","tags":"residence, building","address1":"136 Curtis Street","city":"Somerville","zip":"02144","occupants":[]},{"address1":"11 Winthrop Street","campus":"medford","city":"Medford","emphasis":"4","latlng":"42.409849,-71.12191","locationid":"wren","name":"Wren Hall","tags":"dorm, building","thumbnail":"wrenhall-th.png","zip":"02155","occupants":[]},{"campus":"medford","city":"Medford","emphasis":"4","latlng":"42.406851,-71.120547","locationid":"ext-preslawn","name":"President's Lawn","tags":"lawn","zip":"02155"},{"campus":"medford","city":"Medford","emphasis":"1","latlng":"42.408676,-71.121851","locationid":"ext-res-quad","name":"Carmichael Quad","tags":"lawn, commencement, graduation-ceremony","zip":"02155"},{"campus":"medford","city":"Medford","emphasis":"1","latlng":"42.407702,-71.119829","locationid":"ext-academic-quad","name":"The Green","tags":"lawn, graduation-ceremony, academic quad","zip":"02155"},{"campus":"medford","city":"Medford","emphasis":"4","latlng":"42.407793,-71.123498","locationid":"ext-fletcher-field","name":"Fletcher Field","tags":"field, graduation-ceremony, athletics","zip":"02155"},{"campus":"medford","city":"Medford","emphasis":"1","latlng":"42.402604,-71.119475","locationid":"ext-field-j","name":"Field J","tags":"field, graduation-ceremony, athletics","zip":"02155"},{"campus":"medford","city":"Medford","emphasis":"1","latlng":"42.403385,-71.119984","locationid":"ext-lower-courts","name":"Lower Campus Tennis &amp; Basketball Courts","tags":"athletics","zip":"02155"},{"campus":"medford","city":"Medford","emphasis":"1","latlng":"42.403428,-71.118402","locationid":"ext-ellis-oval","name":"Ellis Oval","tags":"track, graduation-ceremony, athletics","zip":"02155"},{"campus":"medford","city":"Medford","emphasis":"1","latlng":"42.402612,-71.117817","locationid":"ext-kraft-field","name":"Kraft Field","tags":"field, athletics","zip":"02155"},{"campus":"medford","city":"Medford","emphasis":"4","latlng":"42.40653,-71.113123","locationid":"ext-bello-field","name":"Bello Field","tags":"field, athletics","zip":"02155"},{"campus":"medford","city":"Medford","emphasis":"1","latlng":"42.407029,-71.111696","locationid":"ext-field-f","name":"Field F","tags":"field, athletics","zip":"02155"},{"campus":"medford","city":"Medford","emphasis":"1","latlng":"42.407266,-71.113204","locationid":"ext-field-d","name":"Field D","tags":"field, athletics","zip":"02155"},{"campus":"medford","city":"Medford","emphasis":"1","latlng":"42.408185,-71.113767","locationid":"ext-field-a","name":"Field A","tags":"field, athletics","zip":"02155"},{"campus":"medford","city":"Medford","emphasis":"1","latlng":"42.406217,-71.114384","locationid":"ext-field-e","name":"Field E","tags":"field, athletics","zip":"02155"},{"campus":"medford","city":"Medford","emphasis":"5","latlng":"42.407516,-71.114191","locationid":"ext-alumni-fields","name":"Alumni Field","tags":"field, athletics","zip":"02155"},{"campus":"medford","city":"Medford","emphasis":"1","latlng":"42.406791,-71.115392","locationid":"ext-field-c","name":"Field C","tags":"field, athletics","zip":"02155"},{"campus":"medford","city":"Medford","emphasis":"1","latlng":"42.409326,-71.115403","locationid":"int-hamilton-pool","name":"Hamilton Pool","tags":"athletics","zip":"02155"},{"campus":"medford","city":"Medford","emphasis":"1","latlng":"42.406692,-71.119154","locationid":"ext-library-roof","name":"Library Roof","zip":"02155"},{"campus":"medford","city":"Medford","emphasis":"1","latlng":"42.407298,-71.12235","locationid":"ext-voute-tennis","name":"Voute Tennis Courts","tags":"athletics","zip":"02155"},{"campus":"medford","city":"Medford","emphasis":"1","latlng":"42.410102,-71.115043","locationid":"p-eliot-pearson","name":"Eliot-Pearson Parking Lot","tags":"parking, parking-faculty-staff","zip":"02155"},{"address1":"80 George Street","address2":"*Includes a few visitor parking spots.","campus":"medford","city":"Medford","emphasis":"1","latlng":"42.412046,-71.114572","locationid":"p-80george","name":"80 George Street Parking Lot","tags":"parking, parking-visitor, parking-faculty-staff","zip":"02155"},{"address2":"","campus":"medford","city":"Medford","emphasis":"1","latlng":"42.408526,-71.120049","locationid":"p-uppercampus-rd","name":"Upper Campus Road Parking Lot","tags":"parking, parking-faculty-staff","zip":"02155"},{"campus":"medford","city":"Medford","emphasis":"1","latlng":"42.408375,-71.123385","locationid":"p-fletcher","name":"Fletcher Parking Lot","tags":"parking, parking-faculty-staff","zip":"02155"},{"campus":"medford","city":"Medford","emphasis":"1","latlng":"42.415433,-71.12713","locationid":"p-parking-200-bostonave","name":"200 Boston Avenue Parking Lot","tags":"parking, parking-no-sticker, parking-faculty-staff","zip":"02155"},{"campus":"medford","city":"Medford","emphasis":"1","latlng":"42.404098,-71.119856","locationid":"p-aidekman2","name":"Aidekman Parking Lot 2","tags":"parking, parking-faculty-staff","zip":"02155"},{"campus":"medford","name":"Lower Campus Garage","tags":"parking, parking-resident","city":"Medford","locationid":"p-lower-garage","emphasis":"1","latlng":"42.403757,-71.119738"},{"campus":"medford","name":"Anderson Parking Lot","tags":"parking, parking-faculty-staff","city":"Medford","locationid":"p-bromfield-pearson","emphasis":"1","latlng":"42.405864,-71.116401"},{"campus":"medford","name":"Aidekman Parking Lot 1","tags":"parking, parking-faculty-staff, parking-commuter","city":"Medford","locationid":"p-aidekman1","emphasis":"1","latlng":"42.404196,-71.117614"},{"campus":"medford","name":"Cousens Parking Lot","tags":"parking, parking-faculty-staff, parking-resident,  parking-commuter","city":"Medford","locationid":"p-cousens","emphasis":"1","latlng":"42.408423,-71.114829"},{"address1":"419 Boston Avenue","campus":"medford","city":"Medford","emphasis":"4","imageurl":"dowling-garage-wide.png","latlng":"42.408843,-71.118311","locationid":"p-dowling-garage","name":"Dowling Parking Garage","tags":"parking, parking-visitor, parking-faculty-staff,  parking-commuter","thumbnail":"dowlinggarage-th.png","zip":"02155"},{"locationid":"p-hillhall","emphasis":"1","latlng":"42.409881,-71.119727","campus":"medford","name":"Hill Hall Parking","tags":"parking, parking-resident","city":"Medford"},{"locationid":"p-miller","emphasis":"1","latlng":"42.409215,-71.121105","campus":"medford","name":"Miller Parking Lot","tags":"parking, parking-resident","city":"Medford"},{"locationid":"p-carmichael","emphasis":"1","latlng":"42.409698,-71.122565","campus":"medford","name":"Carmichael Parking Lot","tags":"parking, parking-faculty-staff","city":"Medford"},{"campus":"medford","name":"Tab Parking Lot","tags":"parking, parking-faculty-staff","city":"Medford","locationid":"p-tab","address2":"","emphasis":"1","latlng":"42.401491,-71.126046"},{"campus":"medford","name":"Web Viewing Area - Cousens Gym","tags":"commencement, web viewing area","city":"Medford","locationid":"cmnt-webviewing-cousens","emphasis":"1","latlng":"42.408249,-71.116143"},{"locationid":"cmnt-webviewing-cabot","emphasis":"1","latlng":"42.40783,-71.121554","campus":"medford","name":"Web Viewing Area - Cabot Center","tags":"commencement, web viewing area","city":"Medford"},{"campus":"medford","name":"Web Viewing Area - Cohen Auditorium","tags":"commencement, web viewing area","city":"Medford","locationid":"cmnt-webviewing-cohen","emphasis":"1","latlng":"42.404228,-71.118944"},{"campus":"medford","name":"Web Viewing Area - Barnum Hall","tags":"commencement, web viewing area","city":"Medford","locationid":"cmnt-webviewing-barnum","emphasis":"1","latlng":"42.407524,-71.120526"},{"locationid":"cmnt-info-booth-eaton","emphasis":"1","latlng":"42.407021,-71.118558","campus":"medford","name":"Information Booth - Eaton Hall","tags":"commencement, info-booth","city":"Medford"},{"locationid":"cmnt-info-booth-cousens","emphasis":"1","latlng":"42.408249,-71.115816","campus":"medford","name":"Information Booth - Cousens Gym","tags":"commencement, info-booth","city":"Medford"},{"locationid":"cmnt-info-booth-musiccenter","emphasis":"1","latlng":"42.404723,-71.118198","campus":"medford","name":"Information Booth - Granoff Music Center","tags":"commencement, info-booth","city":"Medford"},{"campus":"medford","name":"Information Booth - West Hall","tags":"commencement, info-booth","address1":"175 Packard Avenue","city":"Medford","locationid":"cmnt-info-booth-west","address2":"","emphasis":"1","latlng":"42.408118,-71.120472"},{"campus":"medford","name":"Information Booth - Mayer Campus Center","tags":"commencement, info-booth","city":"Medford","locationid":"cmnt-info-booth-campuscenter","emphasis":"1","latlng":"42.40584,-71.11976"},{"campus":"medford","name":"Information Booth - Tisch Library","tags":"commencement, info-booth","city":"Medford","locationid":"cmnt-info-booth-tisch","emphasis":"1","latlng":"42.406561,-71.119571"},{"locationid":"distlerhall","emphasis":"1","latlng":"42.404450,-71.118118","campus":"medford","name":"Distler Performance Hall","tags":"graduation-ceremony, building","city":"Medford"},{"campus":"medford","name":"Restroom - Behind West Hall","tags":"commencement, restroom","city":"Medford","locationid":"cmnt-restroom-west","emphasis":"1","latlng":"42.40847,-71.120397"},{"locationid":"cmnt-restroom-campuscenter","emphasis":"1","latlng":"42.40584,-71.119609","campus":"medford","name":"Restroom - Mayer Campus Center","tags":"commencement, restroom","city":"Medford"},{"campus":"medford","name":"Restroom - Blakely Hall Parking","tags":"commencement, restroom","city":"Medford","locationid":"cmnt-restroom-blakely","emphasis":"1","latlng":"42.408229,-71.123638"},{"campus":"medford","name":"Restroom - In front tennis courts on Packard Avenue","tags":"commencement, restroom","city":"Medford","locationid":"cmnt-restroom-voute","emphasis":"1","latlng":"42.40693,-71.122243"},{"campus":"medford","name":"Restrooms for the Disabled - Olin Center","tags":"commencement, restroom-disabled","city":"Medford","locationid":"cmnt-restroom-disabled-olin","emphasis":"1","latlng":"42.408234,-71.121234"},{"campus":"medford","name":"Restrooms for the Disabled - Mayer Campus Center","tags":"commencement, restroom-disabled","city":"Medford","locationid":"cmnt-restroom-disabled-campuscenter","emphasis":"1","latlng":"42.40584,-71.119448"},{"locationid":"cmnt-restroom-disabled-cabot","emphasis":"1","latlng":"42.40783,-71.12139","campus":"medford","name":"Restrooms for the Disabled - Cabot Center","tags":"commencement, restroom-disabled","city":"Medford"},{"campus":"medford","name":"Food Service - Mayer Campus Center","tags":"commencement, food-service","city":"Medford","locationid":"cmnt-food-campuscenter","emphasis":"1","latlng":"42.40584,-71.119930"},{"campus":"medford","name":"Food Service - Cousens Gym","tags":"commencement, food-service","city":"Medford","locationid":"cmnt-food-cousens","emphasis":"1","latlng":"42.408249,-71.115981"},{"campus":"medford","city":"Medford","emphasis":"1","latlng":"42.411239,-71.121877","locationid":"cmnt-shuttle-winthrop","name":"Shuttle Stop - 51 Winthrop St.","tags":"commencement, shuttle"},{"campus":"medford","city":"Medford","emphasis":"1","latlng":"42.408696,-71.117908","locationid":"cmnt-shuttle-dowling","name":"Shuttle Stop - Dowling Hall","tags":"commencement, shuttle","zip":"02155"},{"campus":"medford","city":"Medford","emphasis":"1","latlng":"42.409825,-71.114196","locationid":"cmnt-shuttle-eliotpearson","name":"Shuttle Stop - Eliot Pearson","tags":"commencement, shuttle","zip":"02155"},{"campus":"medford","city":"Medford","emphasis":"1","latlng":"42.408197,-71.12088","locationid":"cmnt-dropoff-disabled-west","name":"Handicapped Drop-off - Packard Avenue / The Green","tags":"commencement, disabled-dropoff","zip":"02155"},{"campus":"medford","city":"Medford","emphasis":"1","latlng":"42.402386,-71.11999","locationid":"cmnt-dropoff-disabled-jfield","name":"Handicapped Drop-off - J Field","tags":"commencement, disabled-dropoff","zip":"02155"},{"campus":"medford","city":"Medford","emphasis":"1","latlng":"42.40485,-71.117222","locationid":"cmnt-shuttle-college-ave","name":"Shuttle Stop - Ellis Oval","tags":"commencement, shuttle","zip":"02155"},{"campus":"medford","city":"Medford","emphasis":"1","latlng":"42.408059,-71.120945","locationid":"Location48","name":"Shuttle Stop - The Green","tags":"commencement, shuttle","zip":"02155"},{"campus":"medford","city":"Medford","emphasis":"1","latlng":"42.406573,-71.117135","locationid":"cmnt-shuttle-anderson","name":"Shuttle Stop - Memorial Steps","tags":"commencement, shuttle","zip":"02155"},{"campus":"medford","city":"Medford","emphasis":"1","latlng":"42.404509,-71.123343","locationid":"Location47","name":"Shuttle Stop - Lewis Hall","tags":"commencement, shuttle","zip":"02155"},{"campus":"medford","city":"Medford","emphasis":"1","latlng":"42.408249,-71.115441","locationid":"cmnt-shuttle-cousens","name":"Shuttle Stop - Cousens Parking Lot","tags":"commencement, shuttle","zip":"02155"},{"campus":"medford","city":"Medford","emphasis":"1","latlng":"42.41074,-71.075068","locationid":"p-boathouse","name":"Boathouse Parking","tags":"parking, parking-no-sticker","zip":"02155"},{"campus":"medford","city":"Medford","emphasis":"1","latlng":"42.401566,-71.126196","locationid":"cmnt-shuttle-tab","name":"Shuttle Stop - Tab","tags":"commencement, shuttle","zip":"02155"},{"campus":"medford","city":"Medford","emphasis":"1","latlng":"42.396531,-71.122355","locationid":"cmnt-shuttle-davissquare","name":"Shuttle Stop - Davis Square","tags":"commencement, shuttle","zip":"02155"},{"campus":"medford","city":"Medford","emphasis":"1","latlng":"42.408234,-71.121395","locationid":"cmnt-restroom-olin","name":"Restroom - Olin Center","tags":"commencement, restroom","zip":"02155"},{"address1":"550 Boston Avenue","campus":"medford","city":"Medford","emphasis":"1","latlng":"42.404549,-71.114774","locationid":"m550bostonave","name":"550 Boston Avenue","tags":"building, pndp","zip":"02155","occupants":[{"name":"Program for Narrative and Documentary Practice (PNDP)"}]}],"objectId":"zqeQbTws7d","createdAt":"2014-05-08T20:17:54.875Z","updatedAt":"2014-05-14T20:57:55.520Z"}],"objectId":"kJqOpYeXGw","createdAt":"2014-05-08T17:18:06.605Z","updatedAt":"2014-05-08T20:22:06.639Z"}])