{"campus":"medford","locationid":"m23bellevue","name":"23 Bellevue Street","tags":"CSRD, building","address1":"23 Bellevue Street","emphasis":"1","city":"Medford","latlng":"42.41031,-71.121862","occupants":[{"name":"Center for the Study of Race and Democracy","website":"http://as.tufts.edu/csrd/","phone":"7818749178","locwithin":"Third floor"},{"name":"Talloires Network Secretariat","website":"http://talloiresnetwork.tufts.edu","email":"talloiresnetwork@tufts.edu","phone":"7818749731","locwithin":"Entrance on Capen Street Extended"}]},{"campus":"medford","locationid":"msis","name":"SIS Project Building","tags":"Student Information System, building","address1":"62 Rear Talbot Ave","emphasis":"1","city":"Somerville","zip":"02144","latlng":"42.404328,-71.120254","occupants":[]},{"campus":"medford","locationid":"m122","name":"101 Talbot Avenue","tags":"building, Russian House, residence","address1":"101 Talbot Avenue","emphasis":"1","city":"Somerville","zip":"02144","latlng":"42.405947,-71.121809","occupants":[]},{"campus":"medford","locationid":"m144","name":"108 Bromfield Road","tags":"building, PACE, psychology","phone":"6176274000","address1":"108 Bromfield Road","emphasis":"1","city":"Somerville","zip":"02144","latlng":"42.404787,-71.116729","occupants":[]},{"campus":"medford","locationid":"m074","name":"108 Packard Avenue","tags":"building, Conference bureau, summer programs","phone":"6176273568","website":"http://ase.tufts.edu/conferences/","address1":"108 Packard Avenue","emphasis":"1","city":"Somerville","zip":"02144","latlng":"42.405774,-71.122854","occupants":[{"email":"france@tufts.edu","locwithin":"Third floor","name":"European Center","phone":"6176273290","website":"http://ase.tufts.edu/europeancenter/"}]},{"campus":"medford","locationid":"m103","name":"112 Packard Avenue","tags":"building, Community health","phone":"6176273233","website":"http://ase.tufts.edu/commhealth/","address1":"112 Packard Avenue","emphasis":"1","city":"Somerville","zip":"02144","latlng":"42.405875,-71.12279","occupants":[{"name":"Community Health - A&S","website":"http://ase.tufts.edu/commhealth/","email":"chp@tufts.edu","phone":"6176273233"}]},{"campus":"medford","locationid":"m104","name":"120 Packard Avenue","tags":"building, Government and Community Relations, accessible-assistance","website":"http://communityrelations.tufts.edu/","address1":"120 Packard Avenue","emphasis":"1","city":"Somerville","zip":"02144","latlng":"42.406032,-71.122747","accessibility":2,"accessibilityrestroom":0,"occupants":[{"name":"Audit & Management Advisory Services","website":"http://sites.tufts.edu/amas/","email":"Seth.kornetsky@tufts.edu","phone":"6176273227","locwithin":"First and 2nd floor"},{"name":"University Relations - Community Relations","website":"http://communityrelations.tufts.edu/","email":"barbara.rubel@tufts.edu","phone":"6176273780","locwithin":"First floor"}]},{"campus":"medford","locationid":"m132","name":"114 Curtis Street","tags":"building, Feinstein International Center","address1":"114 Curtis Street","emphasis":"1","city":"Somerville","zip":"02144","latlng":"42.407178,-71.124957","occupants":[{"name":"Feinstein International Center","website":"http://sites.tufts.edu/feinstein/","email":"fic@tufts.edu","phone":"6176273423"}]},{"campus":"medford","locationid":"m093","name":"126 Curtis Street","tags":"building, Anthropology, religion","address1":"126 Curtis Street","emphasis":"1","city":"Somerville","zip":"02144","latlng":"42.40763,-71.124647","occupants":[]},{"campus":"medford","locationid":"m110","name":"128 Professors Row","tags":"building","address1":"128 Professors Row","emphasis":"1","city":"Somerville","zip":"02144","latlng":"42.407316,-71.123995","occupants":[]},{"campus":"medford","locationid":"m148","name":"16-20 Sawyer Avenue","tags":"building, accessible-assistance","address1":"16 Sawyer Avenue","emphasis":"1","city":"Somerville","zip":"02144","latlng":"42.406304,-71.12342","accessibility":2,"accessibilityrestroom":0,"occupants":[{"name":"International Office - A&S","website":"http://ase.tufts.edu/icenter/","email":"InternationalCenter@tufts.edu","phone":"6176273458"}]},{"campus":"medford","locationid":"m011","name":"177 College Avenue","tags":"building","address1":"177 College Avenue","emphasis":"1","city":"Medford","latlng":"42.408154,-71.11668","occupants":[]},{"campus":"medford","locationid":"m106","name":"20 Professors Row","tags":"building","address1":"20 Professors Row","emphasis":"1","city":"Somerville","zip":"02144","latlng":"42.405403,-71.118679","occupants":[{"name":"Boards of Advisors","website":"http://provost.tufts.edu/advisors/","email":"advisors@tufts.edu","phone":"6176273324","locwithin":"Third floor"},{"name":"Office of the Vice Provost","website":"http://viceprovost.tufts.edu/","email":"Martin.Lavigne@tufts.edu","phone":"6176273417","locwithin":"First floor"}]},{"campus":"medford","locationid":"r027","name":"200 Boston Avenue","tags":"HR, accessible-assistance, building","address1":"200 Boston Avenue","emphasis":"5","city":"Medford","latlng":"42.415783,-71.126647","accessibility":2,"accessibilityrestroom":0,"occupants":[{"name":"Department of Biology, School of Arts and Sciences","phone":"61762703206176270322","locwithin":"4th Floor, Suites 4600, 4700, and 4800; Receptions/Deliveries to Room 4676"},{"name":"Center for Regenerative and Developmental Biology","phone":"6176275735","locwithin":"Suite 4800"},{"name":"Gordon Institute","website":"http://gordon.tufts.edu/","email":"nancy.buczko@tufts.edu","phone":"6176273117","locwithin":"Suite 2400"},{"name":"Human Resources","website":"http://hr.tufts.edu","phone":"6176274288","locwithin":"1st floor"},{"name":"Human-Robot Interaction Laboratory ","website":"http://hrilab.cs.tufts.edu/"},{"name":"Neuromechanics and Biomimetic Devices Laboratory","website":"http://ase.tufts.edu/biology/labs/trimmer/","phone":"6176270322","locwithin":"Suite 2600"},{"name":"Tufts Collaborative Cluster in Genome Structure and Developmental Patterning","phone":"6176270320","locwithin":"Suites 4700 and 4800"}]},{"campus":"medford","locationid":"r196b","name":"196 Boston Avenue","tags":"building","address1":"196 Boston Avenue","emphasis":"4","city":"Medford","latlng":"42.416188,-71.127602","occupants":[{"name":"Interdisciplinary Laboratory for Computation - ILC","locwithin":"4th floor"},{"name":"Office of Equal Opportunity","website":"http://oeo.tufts.edu","email":"oeo@tufts.edu","phone":"6176273298","locwithin":"First floor"}]},{"campus":"medford","locationid":"m013","name":"26 Winthrop Street","tags":"OT, Occupational Therapy, accessible-assistance, building","phone":"6176275720","website":"http://ase.tufts.edu/bsot/","address1":"26 Winthrop Street","emphasis":"1","city":"Medford","latlng":"42.410364,-71.123084","accessibility":2,"accessibilityrestroom":0,"occupants":[{"name":"Occupational Therapy - A&S","website":"http://ase.tufts.edu/bsot/","email":"BSOT@tufts.edu","phone":"6176275750"}]},{"campus":"medford","locationid":"m149","name":"28 Sawyer Avenue","tags":"building","address1":"28 Sawyer Avenue","emphasis":"1","city":"Somerville","zip":"02144","latlng":"42.406399,-71.123679","occupants":[{"name":"Institutional Research","website":"http://provost.tufts.edu/institutionalresearch/","phone":"6176273274"}]},{"campus":"medford","locationid":"m123","name":"44 Teele Avenue","tags":"GDAE, Global Development and Environment Institute, building","phone":"6176273530","website":"http://ase.tufts.edu/gdae/","address1":"44 Teele Avenue","emphasis":"1","city":"Somerville","zip":"02144","latlng":"42.405711,-71.125144","occupants":[{"name":"Global Development And Environment Institute","website":"http://ase.tufts.edu/gdae/","email":"GDAE@tufts.edu","phone":"6176273530"}]},{"campus":"medford","locationid":"m107","name":"Fung House","tags":"Center for Humanities, building","phone":"6176273342","website":"http://ase.tufts.edu/CHAT/","address1":"48 Professors Row","emphasis":"1","city":"Somerville","zip":"02144","latlng":"42.405884,-71.120206","occupants":[{"name":"Center for the Humanities","website":"http://ase.tufts.edu/chat/","email":"humanities@tufts.edu","phone":"6176273342"}]},{"campus":"medford","locationid":"m193","name":"51 Winthrop Street","tags":"graduation-ceremony, accessible-assistance, accessible-restroom, building","address1":"51 Winthrop Street","emphasis":"1","city":"Medford","latlng":"42.411026,-71.121642","accessibility":2,"accessibilityrestroom":1,"occupants":[]},{"campus":"medford","locationid":"m120","name":"55 Talbot Avenue","tags":"Women&#39;s Center, building","phone":"6176273184","website":"http://www.ase.tufts.edu/womenscenter/","address1":"55 Talbot Avenue","emphasis":"1","city":"Somerville","zip":"02144","latlng":"42.40524,-71.119782","occupants":[]},{"campus":"medford","locationid":"m192","name":"80 George Street","tags":"Dame School, accessible-assistance, accessible-restroom, building","address1":"80 George Street","emphasis":"5","city":"Medford","latlng":"42.411891,-71.115204","accessibility":2,"accessibilityrestroom":1,"occupants":[{"name":"Nutrition Newsletter Office","email":"julie.flaherty@tufts.edu","phone":"6176274273","locwithin":"First floor"},{"name":"University Relations - Digital Communications","website":"http://webcomm.tufts.edu/","email":"wccontact@tufts.edu","phone":"6176274282","locwithin":"First floor"},{"name":"University Photography","website":"http://photo.tufts.edu/","email":"photo@tufts.edu","phone":"6176274282","locwithin":"First floor"},{"name":"UA - AS&E Tufts Fund","website":"http://giving.tufts.edu/ways_to_give/annualgiving/get_involved/student_fund.html","email":"tuftsfund@tufts.edu","phone":"6176273014","locwithin":"Suite 300-5"},{"name":"UA - Parents Program","website":"http://giving.tufts.edu/parents/","email":"parentsprogram@tufts.edu","phone":"6176273798","locwithin":"Suite 300"},{"name":"UA - Arts & Sciences Development","website":"http://giving.tufts.edu/ways_to_give/support/a&s.html","email":"tuftsfund@tufts.edu","phone":"6176273014","locwithin":"Suite 300-2"},{"name":"UA - Alumni Relations","website":"http://alumni.tufts.edu/","email":"kaleigh.fitzpatrick@tufts.edu","phone":"6176273532","locwithin":"Suite 100-3"},{"name":"UA - Gift & Information Systems","website":"http://finance.tufts.edu/financialservices/","email":"giftupdate@tufts.edu","phone":"6176274705","locwithin":"Suite 200-4"},{"name":"UA - Special Events","phone":"6176273787","locwithin":"Suite 200-3"},{"name":"UA - Planned Giving","website":"http://www.tufts.edu/development/ways_to_give/giftplanning/index.html","email":"giftplanning@tufts.edu","phone":"6176273727","locwithin":"Suite 300-6"},{"name":"UA - Corporate & Foundation Relations","website":"http://cfr.tufts.edu/","email":"donald.mcgowan@tufts.edu","phone":"6176275263","locwithin":"Suite 200-2"},{"name":"UA - Prospect Management & Research","email":"Amber.Countis@tufts.edu","phone":"6176273433","locwithin":"Suite 200-1"},{"name":"University Relations - Public Relations","website":"http://pr.tufts.edu/","email":"kim.thurler@tufts.edu","phone":"6176273069","locwithin":"Suite 100"},{"name":"UA - Advancement Services","website":"http://advancement.tufts.edu/","email":"giving@tufts.edu","phone":"6176273143","locwithin":"Suite 200-4"},{"name":"UA - Office of Vice President","website":"http://advancement.tufts.edu/","phone":"6176273143","locwithin":"Suite 300-1"},{"name":"UA - Central Development Program","email":"chris.simoneau@tufts.edu","phone":"6176273287","locwithin":"Suite 300-1"},{"name":"UA - University Advancement Development","website":"http://advancement.tufts.edu/","email":"giving@tufts.edu","phone":"6176273143","locwithin":"Suite 200-4"},{"name":"UA - Information Systems","locwithin":"Suite 200-4"},{"name":"UA - Technology Support","website":"http://ase.tufts.edu/its/","locwithin":"Suite 200-4"},{"name":"UA - Planning & Administration","locwithin":"Suite 200-4"},{"name":"UA - Communications & Donor Relations","locwithin":"Suite 200-3"},{"name":"University Relations - Publications","website":"http://publications.tufts.edu/","email":"karen.bailey@tufts.edu","phone":"6176272126","locwithin":"Suite 100-1"}]},{"campus":"medford","locationid":"m089","name":"89-91 Curtis Street","tags":"building","address1":"89-91 Curtis Street","emphasis":"1","city":"Somerville","zip":"02144","latlng":"42.406244,-71.125095","occupants":[{"name":"Dining Services","website":"http://dining.tufts.edu/","email":"tuftsdining@tufts.edu","phone":"6176273566","locwithin":"First floor"},{"name":"Faculty Center/Catering","website":"http://catering.tufts.edu/","phone":"6176273411","locwithin":"Third floor"}]},{"campus":"medford","locationid":"m174","name":"96 Packard Avenue","tags":"Institute for Global Leadership, IGL, building","phone":"6176273314","website":"http://www.tuftsgloballeadership.org/","address1":"96 Packard Avenue","emphasis":"1","city":"Somerville","zip":"02144","latlng":"42.405375,-71.123123","occupants":[]},{"campus":"medford","locationid":"m147","name":"97 Talbot Avenue","tags":"UEP, Urban and Environmental Policy, building","phone":"6176273394","website":"http://ase.tufts.edu/uep/","address1":"97 Talbot Avenue","emphasis":"1","city":"Somerville","zip":"02144","latlng":"42.405909,-71.121588","occupants":[{"name":"Urban & Enviro Policy & Plan","website":"http://ase.tufts.edu/uep/","email":"ann.urosevich@tufts.edu","phone":"6176273394"}]},{"campus":"medford","locationid":"m145","name":"TTS Technology Support Center","tags":"Arena Annex, accessible-assistance, building","address1":"35 Lower Campus Road","emphasis":"1","city":"Medford","latlng":"42.404418,-71.120602","accessibility":2,"accessibilityrestroom":0,"occupants":[{"name":"Tufts Online","website":"https://student.support.tufts.edu/","email":"tolhelp@tufts.edu","phone":"6176274865"}]},{"campus":"medford","locationid":"m019","name":"Aidekman Arts Center","tags":"Tufts University Art Gallery, music, arts, dance, performance, theatre, theater, play, act, ticket, music library, accessible-assistance, accessible-restroom, building, restroom-disabled, commencement","address1":"40 Talbot Avenue","emphasis":"5","city":"Medford","latlng":"42.404078,-71.11929","accessibility":2,"accessibilityrestroom":1,"occupants":[{"name":"Art Gallery","website":"http://artgallery.tufts.edu/default.aspx","email":"artgallery@tufts.edu","phone":"6176273518","locwithin":"First and 2nd floor"},{"name":"Drama and Dance - A&S","website":"http://ase.tufts.edu/drama-dance/","email":"rita.dioguardi@tufts.edu","phone":"6176273524","locwithin":"Left of Cohen"},{"name":"Audio Labs"}]},{"campus":"medford","locationid":"m019a","name":"Alumnae Hall","tags":"accessible-assistance, building","address1":"40 Talbot Avenue","emphasis":"1","city":"Medford","latlng":"42.404649,-71.119162","accessibility":2,"accessibilityrestroom":0,"occupants":[]},{"campus":"medford","locationid":"m041","name":"Alumni House","tags":"building","address1":"95 Talbot Avenue","emphasis":"4","city":"Somerville","zip":"02144","latlng":"42.405814,-71.121219","occupants":[{"name":"Experimental College","website":"http://www.excollege.tufts.edu/","email":"excollege@tufts.edu","phone":"6176273384"}]},{"campus":"medford","locationid":"m003","name":"Anderson Hall","tags":"engineering, accessible-assistance, building","address1":"200 College Avenue","emphasis":"4","city":"Medford","latlng":"42.406166,-71.116812","accessibility":2,"accessibilityrestroom":0,"occupants":[{"name":"Mechanical Engineering","website":"http://engineering.tufts.edu/me/","email":"meinfo@tufts.edu","phone":"6176273239","locwithin":"Room 204"},{"name":"School of Engineering","website":"http://engineering.tufts.edu/","email":"engineeringdeansoffice@tufts.edu","phone":"6176273237","locwithin":"Room 105"},{"name":"Civil and Environmental Engineering","website":"http://engineering.tufts.edu/cee/","email":"ceeinfo@tufts.edu","phone":"6176273211","locwithin":"First floor, Room 11"},{"name":"UA - Engineering Development","website":"http://ase.tufts.edu/epdc/","email":"leah.friedberg@tufts.edu","phone":"6176272402","locwithin":"First floor"}]},{"campus":"medford","locationid":"m025","name":"Bacon Hall","tags":"animal research, psychology lab, accessible-assistance, building","address1":"530 Boston Avenue","emphasis":"1","city":"Medford","latlng":"42.404932,-71.114953","accessibility":2,"accessibilityrestroom":0,"occupants":[]},{"campus":"medford","locationid":"m019b","name":"Balch Arena Theater","tags":"play, theater, performance, graduation-ceremony, accessible-assistance, building","address1":"40 Talbot Avenue","emphasis":"1","city":"Medford","latlng":"42.40449,-71.119253","accessibility":2,"accessibilityrestroom":0,"occupants":[]},{"campus":"medford","locationid":"m029","name":"Ballou Hall","tags":"Coolidge Room, administration, accessible-assistance, building","address1":"1 The Green","emphasis":"5","city":"Medford","latlng":"42.407443,-71.120121","accessibility":2,"accessibilityrestroom":0,"occupants":[{"name":"Office of Institutional Diversity","website":"http://diversity.tufts.edu","phone":"6176273298","locwithin":"First floor"},{"name":"Graduate Arts & Sciences","website":"http://gs.as.tufts.edu/about/contactus.htm","email":"gradschool@ase.tufts.edu","phone":"6176273395","locwithin":"First floor"},{"name":"Office of Vice President of Operations","website":"http://operations.tufts.edu/","email":"linda.snyder@tufts.edu","phone":"6176273334","locwithin":"Fourth floor"},{"name":"Office of the Executive Vice President","website":"http://evp.tufts.edu/","email":"Patricia.Campbell@tufts.edu","phone":"6176273331","locwithin":"Fourth floor"},{"name":"President's Office","website":"http://president.tufts.edu/","email":"candace.copithorne@tufts.edu","phone":"6176273300","locwithin":"Second floor"},{"name":"Office Dean Arts & Sciences","website":"http://as.tufts.edu/about/deansoffice/index.htm","email":"Laurie.Tautkas@tufts.edu","phone":"6176275117","locwithin":"Third floor"},{"name":"Office of the Trustees","website":"http://trustees.tufts.edu/","phone":"6176273320","locwithin":"Fourth floor"},{"name":"University Relations - Office of the VP","website":"http://universityrelations.tufts.edu/university-relations-contact-information/","email":"mary.jeka@tufts.edu","phone":"6176274220","locwithin":"Third floor"},{"name":"University Relations - University Counsel","website":"http://legal.tufts.edu/","email":"marie.salipante@tufts.edu","phone":"6176272147","locwithin":"Third floor"},{"name":"Provost's Office","website":"http://provost.tufts.edu/","email":"provost@tufts.edu","phone":"6176273310","locwithin":"Second floor"}]},{"campus":"medford","locationid":"m004","name":"Barnum Hall","tags":"Biology, Lab, Film Series, accessible-assistance, building","address1":"163 Packard Avenue","emphasis":"1","city":"Medford","latlng":"42.407633,-71.120719","accessibility":2,"accessibilityrestroom":0,"occupants":[{"name":"Biology - A&S","website":"http://ase.tufts.edu/biology/","email":"eileen.magnant@tufts.edu","phone":"6176273195"}]},{"campus":"medford","locationid":"m035","name":"Bendetson Hall","tags":"accessible-assistance, building","phone":"6176273170","website":"http://admissions.tufts.edu/","address1":"2 The Green","emphasis":"4","city":"Medford","latlng":"42.408167,-71.119719","accessibility":2,"accessibilityrestroom":0,"occupants":[]},{"campus":"medford","locationid":"m071","name":"Blakeley Hall","tags":"Residence, Dorm, Fletcher, building","address1":"1 Winthrop Street","emphasis":"4","city":"Medford","latlng":"42.408109,-71.12273","occupants":[]},{"campus":"medford","locationid":"m065","name":"Blakeslee House","tags":"Fletcher, Law, Diplomacy, building","address1":"132 Curtis Street","emphasis":"1","city":"Somerville","zip":"02144","latlng":"42.40773,-71.124553","occupants":[]},{"campus":"medford","locationid":"m005","name":"Bolles House","tags":"LGBT, Lesbian Gay Bisexual Transgender Center, building","phone":"6176273770","website":"http://ase.tufts.edu/lgbt/","address1":"226 College Avenue","emphasis":"1","city":"Somerville","zip":"02144","latlng":"42.40511,-71.117661","occupants":[{"name":"LGBT Center","website":"http://ase.tufts.edu/lgbt/","email":"lgbt@tufts.edu","phone":"6176273770","locwithin":"Second and 3rd floor"},{"name":"Latino Center","website":"http://ase.tufts.edu/latinocenter/","email":"latinocenter@tufts.edu","phone":"6176273363","locwithin":"First floor"}]},{"campus":"medford","locationid":"m007","name":"Braker Hall","tags":"Economics, accessible-assistance, building","phone":"6176273560","website":"http://ase.tufts.edu/econ/","address1":"8 Upper Campus Road","emphasis":"4","city":"Medford","latlng":"42.407401,-71.118133","accessibility":2,"accessibilityrestroom":0,"occupants":[{"name":"Economics - A&S","website":"http://ase.tufts.edu/econ/","email":"Linda.Casey@tufts.edu","phone":"6176273560","locwithin":"First floor, Room 11"}]},{"campus":"medford","locationid":"m008","name":"Bray Laboratory","tags":"accessible-assistance, building","address1":"504 Boston Avenue","emphasis":"1","city":"Medford","latlng":"42.405744,-71.115631","accessibility":2,"accessibilityrestroom":0,"occupants":[]},{"campus":"medford","locationid":"m099","name":"Bromfield House","tags":"Educational &amp; Scholarly Technology Services, building","phone":"6176273380","website":"https://it.tufts.edu/ests","address1":"16 Dearborn Road","emphasis":"1","city":"Somerville","zip":"02144","latlng":"42.404889,-71.116314","occupants":[]},{"campus":"medford","locationid":"m002","name":"Bromfield-Pearson","tags":"Mathematics, graduation-ceremony, accessible-assistance, building","phone":"6176273235","website":"http://math.tufts.edu/","address1":"503 Boston Avenue","emphasis":"4","city":"Medford","latlng":"42.405482,-71.116415","accessibility":2,"accessibilityrestroom":0,"occupants":[{"locwithin":"Room 102","name":"Mathematics - A&S","phone":"61762732345","website":"http://math.tufts.edu/"}]},{"campus":"medford","locationid":"m151","name":"Cabot Center","tags":"Fletcher, International Relations, accessible-full, building","address1":"170 Packard Avenue","emphasis":"4","city":"Medford","latlng":"42.407941,-71.121509","accessibility":1,"accessibilityrestroom":0,"occupants":[{"name":"International Relations","website":"http://ase.tufts.edu/ir/","email":"internationalrelations@tufts.edu","phone":"6176272776","locwithin":"Sixth floor, Room 60"},{"name":"Fares Center for Eastern Mediterranean Studies","website":"http://farescenter.tufts.edu/","email":"Fares-center@tufts.edu","phone":"6176276560","locwithin":"Mugar 129"},{"name":"Academic Support-Fletcher","website":"http://fletcher.tufts.edu/Academic/Registrar-Office","email":"nora.moser@tufts.edu","phone":"6176272405","locwithin":"Second floor"},{"name":"Student Services - Fletcher","email":"Sarah.Strong@tufts.edu","phone":"6176275997","locwithin":"Fourth floor"}]},{"campus":"medford","locationid":"m033","name":"Campus Bookstore","tags":"Textbooks, supplies, apparel, clothing, books, accessible-assistance, building","phone":"6176273468","website":"http://tufts.bncollege.com/webapp/wcs/stores/servlet/BNCBHomePage?storeId=20051&catalogId=10001&langId=-1","address1":"46 Professors Row","emphasis":"1","city":"Medford","latlng":"42.405551,-71.120426","accessibility":2,"accessibilityrestroom":0,"occupants":[]},{"campus":"medford","locationid":"m158","name":"Campus Center","tags":"Elizabeth Van Huysen Mayer Campus Center, dining, atm, hotung cafe, information booth, ping-pong, pool table, Jumbocash Machine, cash machine, food, accessible-assistance, building","website":"http://ocl.tufts.edu/mayer-campus-center/","address1":"44 Professors Row","emphasis":"5","city":"Somerville","zip":"02144","latlng":"42.405626,-71.119824","accessibility":2,"accessibilityrestroom":0,"occupants":[{"name":"Student Activities - A&S","website":"http://ocl.tufts.edu/","email":"ocl@tufts.edu","phone":"6176273212"},{"name":"Campus Center - Dining Services","website":"http://dining.tufts.edu/locations-hours/overview/commons-deli-grill/","email":"sabrina.mccarthy@tufts.edu","phone":"6176275204"}]},{"campus":"medford","locationid":"m085","name":"Central Services","tags":"building","address1":"520 Boston Avenue","emphasis":"1","city":"Medford","latlng":"42.405103,-71.115066","occupants":[{"name":"Construction Management","email":"linda.bratton@tufts.edu","phone":"6176273371","locwithin":"Second floor"},{"name":"Facilities - Medford","website":"http://operations.tufts.edu/facilities/contact-info/","phone":"6176273496"},{"name":"Facilities Medford - Trades A","website":"http://operations.tufts.edu/facilities/contact-info/","phone":"6176273496"},{"name":"Facilities Medford - Trades B","website":"http://operations.tufts.edu/facilities/contact-info/","phone":"6176273496"},{"name":"Facilities Medford - Workcrew","website":"http://operations.tufts.edu/facilities/contact-info/","phone":"6176273496"}]},{"campus":"medford","locationid":"m068","name":"Chandler House","tags":"Spanish language, residence, building","address1":"125 Powderhouse Boulevard","emphasis":"1","city":"Somerville","zip":"02144","latlng":"42.404751,-71.123544","occupants":[]},{"campus":"medford","locationid":"m019c","name":"Cohen Auditorium","tags":"Plays, Performance, Lecture, graduation-ceremony, accessible-assistance, building","address1":"40 Talbot Avenue","emphasis":"1","city":"Medford","latlng":"42.404367,-71.118973","accessibility":2,"accessibilityrestroom":0,"occupants":[]},{"campus":"medford","locationid":"m036","name":"Costume Shop","tags":"accessible-assistance, building","address1":"54 Talbot Avenue","emphasis":"1","city":"Medford","latlng":"42.404715,-71.120025","accessibility":2,"accessibilityrestroom":0,"occupants":[]},{"campus":"medford","locationid":"m039","name":"Curtis Hall","tags":"dining, Brown and Brew, MAB Lab, Media Advisory Board, Tufts Observer, Tufts Daily, WMFO, TUTV, food, post office, accessible-assistance, building","address1":"474 Boston Avenue","emphasis":"1","city":"Medford","latlng":"42.406959,-71.116527","accessibility":2,"accessibilityrestroom":0,"occupants":[{"email":"arthur.rigordaeva@tufts.edu","locwithin":"First floor","name":"Brown and Brew","phone":"6176275748","website":"http://dining.tufts.edu/locations-hours/overview/brown-brew-coffee-house/"},{"email":"ceeo@tufts.edu","locwithin":"Basement","name":"Center for Engineering Education and Outreach","phone":"6176275888","website":"http://ceeo.tufts.edu/"}]},{"campus":"medford","locationid":"m001","name":"Dana Laboratory","tags":"Biology Lab, accessible-assistance, building","address1":"165 Packard Avenue","emphasis":"1","city":"Medford","latlng":"42.407804,-71.120892","accessibility":2,"accessibilityrestroom":0,"occupants":[]},{"campus":"medford","locationid":"m023","name":"Dowling Hall","tags":"administration, atm, Academic Resource Center, Visitor Parking, Bursar's Office, Career Planning Center, Dean of Students, University Police, Registrar's Office, Student Employment Office, information booth, campus tours, Admissions Visitor Center, accessible-assistance, accessible-restroom, building","phone":"6176272000","website":"http://uss.tufts.edu/stuServ/","address1":"419 Boston Avenue","emphasis":"5","city":"Medford","latlng":"42.408529,-71.1183","accessibility":2,"accessibilityrestroom":1,"occupants":[{"name":"Summer Session - A&S","website":"http://ase.tufts.edu/summer/","email":"summer@tufts.edu","phone":"6176272000"},{"name":"Public Safety","website":"http://publicsafety.tufts.edu/","email":"kevin.maguire@tufts.edu","phone":"6176273502","locwithin":"First floor"},{"name":"Public Safety Affairs - Medford","website":"http://publicsafety.tufts.edu/","email":"duane.weisse@tufts.edu","phone":"6176273030","locwithin":"First floor"},{"name":"Financial Services","website":"http://uss.tufts.edu/finserv/","email":"studentservices@ase.tufts.edu","phone":"6176272000","locwithin":"Seventh floor"},{"name":"Office of the Dean of Undergraduate Education","website":"http://uss.tufts.edu/undergradEducation/","email":"james.glaser@tufts.edu","phone":"6176274239","locwithin":"Seventh floor"},{"name":"Programs Abroad","website":"http://uss.tufts.edu/studyabroad/","email":"sheila.bayne@tufts.edu","phone":"6176272000"},{"name":"Student Services Center - A&S","website":"http://uss.tufts.edu/stuserv/","email":"studentservices@ase.tufts.edu","phone":"6176272000"},{"name":"Admissions - AS&E","website":"http://admissions.tufts.edu/","email":"admissions.inquiry@ase.tufts.edu","phone":"6176273170"}]},{"campus":"medford","locationid":"m038","name":"East Hall","tags":"English, History, accessible-assistance, building","address1":"6 The Green","emphasis":"1","city":"Medford","latlng":"42.40767,-71.118745","accessibility":2,"accessibilityrestroom":0,"occupants":[{"name":"History - A&S","website":"http://ase.tufts.edu/history/","email":"Mary-Ann.Hagopian@tufts.edu","phone":"6176272783","locwithin":"Room 10"},{"name":"English - A&S","website":"http://ase.tufts.edu/english/","email":"english@tufts.edu","phone":"6176273459","locwithin":"Room 210"}]},{"campus":"medford","locationid":"m010","name":"Eaton Hall","tags":"ITS, Computing, Computers, accessible-assistance, accessible-restroom, building","address1":"5 The Green","emphasis":"1","city":"Medford","latlng":"42.406833,-71.118683","accessibility":2,"accessibilityrestroom":1,"occupants":[{"name":"Anthropology","website":"http://ase.tufts.edu/anthropology/","email":"jamie.gorman@tufts.edu","phone":"6176276528","locwithin":"302 Eaton Hall"},{"name":"Religion - A&S","website":"http://ase.tufts.edu/religion/","email":"jamie.gorman@tufts.edu","phone":"6176276528","locwithin":"302 Eaton Hall"},{"name":"Classics - A&S","website":"http://ase.tufts.edu/classics/","email":"classics@tufts.edu","phone":"6176273213","locwithin":"Third floor"},{"name":"American Studies","website":"http://ase.tufts.edu/amstud/","email":"kathy.spagnoli@tufts.edu","phone":"6176272311","locwithin":"Bottom floor"},{"name":"Center for Interdisciplinary Studies","website":"http://cis.tufts.edu/","email":"andrea.carlino@tufts.edu","phone":"6176275447","locwithin":"First floor, Room 11"},{"name":"Sociology - A&S","website":"http://ase.tufts.edu/sociology/","email":"john.libassi@tufts.edu","phone":"6176273561","locwithin":"First floor, Room 11"},{"name":"Women's, Gender, and Sexuality Studies","website":"http://ase.tufts.edu/wgss/default.aspx","email":"WomensStudies@tufts.edu","phone":"6176272955","locwithin":"Room 106"},{"name":"Peace & Justice Study","website":"http://pjs.tufts.edu/default.aspx","email":"dale.bryan@tufts.edu","phone":"6176272261","locwithin":"First floor"},{"name":"Perseus Digital Library Project","website":"http://www.perseus.tufts.edu/hopper/","email":"lisa.cerrato@tufts.edu","phone":"6176273830","locwithin":"First Floor, 134C"},{"name":"Archaeology Program","website":"http://ase.tufts.edu/classics/undergrad/majorArchaeology.htm","email":"archaeology@tufts.edu","phone":"6176273213"}]},{"campus":"medford","locationid":"m012a","name":"Eliot-Pearson Child Development Center","tags":"accessible-assistance, accessible-restroom, building","address1":"105 College Avenue","emphasis":"1","city":"Medford","latlng":"42.410473,-71.114624","accessibility":2,"accessibilityrestroom":1,"occupants":[]},{"campus":"medford","locationid":"m012b","name":"Eliot-Pearson Children's School","tags":"accessible-assistance, building","address1":"105 College Avenue","emphasis":"4","city":"Medford","latlng":"42.410278,-71.114372","accessibility":2,"accessibilityrestroom":0,"occupants":[]},{"campus":"medford","locationid":"m070","name":"Fairmont House","tags":"building","address1":"21-23 Fairmount Street","emphasis":"4","city":"Medford","latlng":"42.409956,-71.121212","occupants":[]},{"campus":"medford","locationid":"m014","name":"Goddard Hall","tags":"Fletcher, Ginn, library, accessible-full, building","address1":"160 Packard Avenue","emphasis":"1","city":"Medford","latlng":"42.407692,-71.121613","accessibility":1,"accessibilityrestroom":0,"occupants":[{"name":"UA - Fletcher Development & Alumni Relations","website":"http://fletcher.tufts.edu/alumni/","email":"fletcheralum@tufts.edu","phone":"6176274573"}]},{"campus":"medford","locationid":"m020","name":"Granoff Family Hillel Center","tags":"accessible-assistance, accessible-restroom, building","phone":"6176273242","website":"http://www.tuftshillel.org/","address1":"220 Packard Avenue","emphasis":"1","city":"Medford","latlng":"42.409322,-71.120877","accessibility":2,"accessibilityrestroom":1,"occupants":[]},{"campus":"medford","locationid":"m059","name":"Hall House","tags":"Jewish culture, residence, building","address1":"98 Packard Avenue","emphasis":"4","city":"Somerville","zip":"02144","latlng":"42.405465,-71.123063","occupants":[]},{"campus":"medford","locationid":"m060","name":"Hayes House","tags":"building","address1":"17 Chetwynd Road","emphasis":"4","city":"Somerville","zip":"02144","latlng":"42.40843,-71.125011","occupants":[]},{"campus":"medford","locationid":"m032","name":"Health Service","tags":"Hooper Infirmary, doctor, sick, illness, accessible-assistance, building","phone":"6176273350","website":"http://ase.tufts.edu/healthservice/","address1":"124 Professors Row","emphasis":"5","city":"Somerville","zip":"02144","latlng":"42.407146,-71.123748","accessibility":2,"accessibilityrestroom":0,"occupants":[]},{"campus":"medford","locationid":"m072","name":"McCollester House","tags":"dormitory, residence, building","address1":"28 Capen Street","emphasis":"1","city":"Medford","latlng":"42.411015,-71.123962","occupants":[]},{"campus":"medford","locationid":"m102","name":"Scene Shop","tags":"building","address1":"530 Boston Avenue","emphasis":"1","city":"Medford","latlng":"42.405319,-71.115293","occupants":[]},{"campus":"medford","locationid":"m057","name":"Tousey House","tags":"building","address1":"14 Edison Avenue","emphasis":"4","city":"Medford","latlng":"42.410459,-71.123823","occupants":[]},{"campus":"medford","locationid":"m063","name":"Central Heating Building","tags":"building","address1":"100 North Hill Road","emphasis":"1","city":"Medford","latlng":"42.407857,-71.118217","occupants":[]},{"campus":"medford","locationid":"m061","name":"Hillside House","tags":"building","address1":"32 Dearborn Road","emphasis":"4","city":"Somerville","zip":"02144","latlng":"42.405013,-71.117112","occupants":[]},{"campus":"medford","locationid":"m125","name":"10 Winthrop Street","tags":"building, residence","phone":"","address1":"10 Winthrop Street","emphasis":"1","city":"Medford","latlng":"42.409575,-71.123364","occupants":[]},{"campus":"medford","locationid":"m129","name":"Carpenter House","tags":"residence, building","address1":"8 Winthrop Street","emphasis":"4","city":"Medford","latlng":"42.409446,-71.123561","occupants":[]},{"campus":"medford","locationid":"m155","name":"Hallowell Hall","tags":"dormitory, residence, building","address1":"10-80 North Hill Road","emphasis":"1","city":"Medford","latlng":"42.408747,-71.119007","occupants":[]},{"campus":"medford","locationid":"m153","name":"Hillside Housing 1","tags":"dormitory, residence, building","address1":"10-80 North Hill Road","emphasis":"1","city":"Medford","latlng":"42.409086,-71.119152","occupants":[]},{"campus":"medford","locationid":"m154","name":"Hillside Housing 2","tags":"dormitory, residence, building","address1":"10-80 North Hill Road","emphasis":"1","city":"Medford","latlng":"42.408893,-71.119541","occupants":[]},{"campus":"medford","locationid":"m080","name":"Houston Hall","tags":"dormitory, residence, building","address1":"190 Packard Avenue","emphasis":"1","city":"Medford","latlng":"42.408237,-71.121993","occupants":[]},{"campus":"medford","locationid":"m037","name":"West Hall","tags":"dormitory, residence, building","address1":"175 Packard Avenue","emphasis":"1","city":"Medford","latlng":"42.408284,-71.120336","occupants":[]},{"campus":"medford","locationid":"m026","name":"Halligan Hall","tags":"Athletics Department, Electrical Engineering, Computer Engineering, building","address1":"161 College Avenue","emphasis":"4","city":"Medford","latlng":"42.408393,-71.116305","occupants":[{"name":"Computer Science","website":"http://www.cs.tufts.edu/","email":"csadmin@cs.tufts.edu","phone":"6176272225","locwithin":"Room 102"},{"name":"Electrical & Computer Engineer","website":"http://www.ece.tufts.edu/","email":"yvette.landry@tufts.edu","phone":"6176273217","locwithin":"Room 101"}]},{"campus":"medford","locationid":"m189","name":"Interfaith Center","tags":"accessible-assistance, accessible-restroom, building","address1":"58 Winthrop Street","emphasis":"4","city":"Medford","latlng":"42.411374,-71.122181","accessibility":2,"accessibilityrestroom":1,"occupants":[]},{"campus":"medford","locationid":"m019d","name":"Leir Hall","tags":"accessible-assistance, building","address1":"40 Talbot Avenue","emphasis":"1","city":"Medford","latlng":"42.404577,-71.118769","accessibility":2,"accessibilityrestroom":0,"occupants":[]},{"campus":"medford","locationid":"m015","name":"Lincoln Filene Hall","tags":"accessible-assistance, accessible-restroom, building","address1":"10 Upper Campus Road","emphasis":"1","city":"Medford","latlng":"42.407224,-71.117832","accessibility":2,"accessibilityrestroom":1,"occupants":[{"name":"Lincoln Filene Center","website":"http://activecitizen.tufts.edu/communitypartnerships/","email":"Shirley.Mark@tufts.edu","phone":"6176273453"},{"name":"Tisch College","website":"http://activecitizen.tufts.edu/","email":"activecitizen@tufts.edu","phone":"6176273453"}]},{"campus":"medford","locationid":"m016","name":"Michael Laboratory","tags":"accessible-assistance, building","address1":"62 Talbot Avenue","emphasis":"1","city":"Somerville","zip":"02144","latlng":"42.404724,-71.120773","accessibility":2,"accessibilityrestroom":0,"occupants":[]},{"campus":"medford","locationid":"m046","name":"Milne House","tags":"Latino, Hispanic culture, building","address1":"8-10 Whitfield Road","emphasis":"1","city":"Somerville","zip":"02144","latlng":"42.405629,-71.123272","occupants":[]},{"campus":"medford","locationid":"m017","name":"Miner Hall","tags":"Philosophy, accessible-assistance, accessible-restroom, building","address1":"14 Upper Campus Road","emphasis":"1","city":"Medford","latlng":"42.406559,-71.117849","accessibility":2,"accessibilityrestroom":1,"occupants":[{"name":"Center for Cognitive Studies","website":"http://ase.tufts.edu/cogstud/","phone":"6176273297","locwithin":"Main Office: Room 115; Visiting Fellows and Postdocs: Room 111"},{"name":"Philosophy - A&S","website":"http://ase.tufts.edu/philosophy/","email":"philosophy@tufts.edu","phone":"6176273230","locwithin":"Second floor"}]},{"campus":"medford","locationid":"m018","name":"Mugar Hall","tags":"dining, food, accessible-full, accessible-restroom, building","phone":"6176275099","website":"http://dining.tufts.edu/locations-hours/overview/mugar-cafeacute-fletcher-graduate-school-dining/","address1":"160R Packard Avenue","emphasis":"1","city":"Medford","latlng":"42.407854,-71.122177","accessibility":1,"accessibilityrestroom":1,"occupants":[{"name":"Mugar Dining","website":"http://dining.tufts.edu/locations-hours/overview/mugar-cafeacute-fletcher-graduate-school-dining/","email":"dante.goytizolo@tufts.edu ","phone":"6176275099"}]},{"campus":"medford","locationid":"m084","name":"Office Services","tags":"accessible-assistance, building","address1":"179 College Avenue","emphasis":"1","city":"Medford","latlng":"42.407824,-71.116534","accessibility":2,"accessibilityrestroom":0,"occupants":[]},{"campus":"medford","locationid":"m086","name":"Olin Center","tags":"Languages, Spanish, German, French, Russian, Arabic, Japanese, Chinese, accessible-assistance, accessible-restroom, building","address1":"180 Packard Avenue","emphasis":"4","city":"Medford","latlng":"42.408332,-71.121229","accessibility":2,"accessibilityrestroom":1,"occupants":[{"name":"Romance Languages - A&S","website":"http://ase.tufts.edu/romlang/","email":"romancelanguages@tufts.edu","phone":"6176273289","locwithin":"Second floor, Room 2"},{"name":"German, Russian, and Asian Languages","website":"http://ase.tufts.edu/grall/","email":"vicky.cirrone@tufts.edu","phone":"6176273442","locwithin":"Third floor, Room 32"}]},{"campus":"medford","locationid":"m034","name":"Packard Hall","tags":"administration, accessible-full, accessible-restroom, building","address1":"4 The Green","emphasis":"1","city":"Medford","latlng":"42.407955,-71.119359","accessibility":1,"accessibilityrestroom":1,"occupants":[{"name":"Political Science - A&S","website":"http://ase.tufts.edu/polsci/","email":"politicalscience@tufts.edu","phone":"6176273465"}]},{"campus":"medford","locationid":"m027","name":"Paige Hall","tags":"Education, building","phone":"6176273244","website":"http://ase.tufts.edu/education/","address1":"12 Upper Campus Road","emphasis":"4","city":"Medford","latlng":"42.406832,-71.117664","occupants":[{"name":"Education - A&S","website":"http://ase.tufts.edu/education/","email":"Lori.jackson@tufts.edu","phone":"6176273244"}]},{"campus":"medford","locationid":"m009","name":"Pearson Chemical Laboratory","tags":"Pearson Hall, accessible-assistance, building","address1":"62 Talbot Avenue","emphasis":"4","city":"Somerville","zip":"02144","latlng":"42.404908,-71.120487","accessibility":2,"accessibilityrestroom":0,"occupants":[{"name":"Chemistry - A&S","website":"http://chem.tufts.edu/","phone":"6176273441"}]},{"campus":"medford","locationid":"m195","name":"Perry and Marty Granoff Music Center","tags":"Music, performance, concert, Distler Performance Hall, accessible-assistance, accessible-restroom, building","phone":"6176273679","website":"http://as.tufts.edu/music/musiccenter/default.aspx","address1":"20 Talbot Avenue","emphasis":"4","city":"Medford","latlng":"42.404578,-71.118388","accessibility":2,"accessibilityrestroom":1,"occupants":[{"name":"Music - A&S","website":"http://as.tufts.edu/music/default.aspx","email":"musicadmin@tufts.edu","phone":"6176273564","locwithin":"First floor"}]},{"campus":"medford","locationid":"m021","name":"Psychology Building","tags":"accessible-assistance, building","phone":"6176273523","website":"http://ase.tufts.edu/psychology/","address1":"490 Boston Avenue","emphasis":"1","city":"Medford","latlng":"42.406314,-71.116086","accessibility":2,"accessibilityrestroom":0,"occupants":[]},{"campus":"medford","locationid":"m019e","name":"Remis Sculpture Court","tags":"accessible-assistance, building","address1":"15 Lower Campus Road","emphasis":"1","city":"Medford","latlng":"42.404445,-71.11873","accessibility":2,"accessibilityrestroom":0,"occupants":[]},{"campus":"medford","locationid":"m022","name":"Robinson Hall","tags":"Engineering, accessible-assistance, building","address1":"212 College Avenue","emphasis":"1","city":"Medford","latlng":"42.40579,-71.117062","accessibility":2,"accessibilityrestroom":0,"occupants":[{"name":"Physics & Astronomy - A&S","website":"https://wikis.uit.tufts.edu/confluence/display/physics/Home","email":"gayle.grant@tufts.edu","phone":"6176273029","locwithin":"Room 257"}]},{"campus":"medford","locationid":"m049","name":"Sawyer House","tags":"accessible-full, building","address1":"120 Curtis Street","emphasis":"1","city":"Somerville","zip":"02144","latlng":"42.40737,-71.124789","accessibility":1,"accessibilityrestroom":0,"occupants":[{"name":"Counseling Center","website":"http://ase.tufts.edu/counseling/","email":"j.ross@tufts.edu","phone":"6176273360"}]},{"campus":"medford","locationid":"m028","name":"Science and Technology Center","tags":"Engineering, Biology, Laboratory, SciTech, accessible-assistance, accessible-restroom, building","address1":"4 Colby Street","emphasis":"4","city":"Medford","latlng":"42.403589,-71.113161","accessibility":2,"accessibilityrestroom":1,"occupants":[{"name":"Biomedical Engineering","website":"http://engineering.tufts.edu/bme/","email":"BME@tufts.edu","phone":"6176272580","locwithin":"Second floor, Room 229"},{"name":"Chemical Engineering","website":"http://engineering.tufts.edu/chbe/","email":"ChBE@tufts.edu","phone":"6176273900","locwithin":"First floor, Room 148"},{"name":"Center For Science and Mathematics Teaching","website":"http://ase.tufts.edu/csmt/","email":"csmt@tufts.edu","phone":"6176272825","locwithin":"Second floor, Room 263"},{"name":"High-Energy Physics","locwithin":"First floor, Room 105"}]},{"campus":"medford","locationid":"m081","name":"Start House","tags":"accessible-assistance, accessible-restroom, building","address1":"17 Latin Way","emphasis":"1","city":"Somerville","zip":"02144","latlng":"42.405653,-71.120924","accessibility":2,"accessibilityrestroom":1,"occupants":[]},{"campus":"medford","locationid":"m030","name":"TAB","tags":"Tufts Administration Building, accessible-assistance, accessible-restroom, building","address1":"169 Holland Street","emphasis":"5","city":"Somerville","zip":"02144","latlng":"42.401206,-71.125335","accessibility":2,"accessibilityrestroom":1,"occupants":[{"name":"Risk Management","website":"http://finance.tufts.edu/risk-ins/","email":"David.Slater@tufts.edu","phone":"6176273981"},{"name":"Tufts Technology Services","website":"http://it.tufts.edu/","email":"uitsc@tufts.edu","phone":"6176273376"}]},{"campus":"medford","locationid":"m024","name":"Tisch Library","tags":"Information Technology Services - ITS, Tower Cafe, accessible-assistance, accessible-restroom, building","phone":"6176273347","website":"http://www.library.tufts.edu/Tisch/","address1":"35 Professors Row","emphasis":"5","city":"Medford","latlng":"42.406242,-71.118857","accessibility":2,"accessibilityrestroom":1,"occupants":[{"name":"Tisch Library","website":"http://www.library.tufts.edu/tisch/","email":"tischadmin@tufts.edu","phone":"6176273345"},{"name":"Digital Collections & Archives","website":"http://sites.tufts.edu/dca/","email":"archives@tufts.edu","phone":"6176273737","locwithin":"Level G"},{"name":"University Library Services","website":"http://ase.tufts.edu/its/","email":"tulips@tufts.edu","locwithin":"First floor"},{"name":"Arts & Sciences Information Technology","website":"http://ase.tufts.edu/its/","email":"tulips@tufts.edu","locwithin":"First floor"},{"name":"Tower Cafe","website":"http://dining.tufts.edu/locations-hours/overview/the-tower-caf-at-tisch-library/","email":"arthur.rigordaeva@tufts.edu","phone":"6176273841","locwithin":"Inside the Tower"}]},{"campus":"medford","locationid":"m076","name":"Wyeth House","tags":"German Culture, Residence, building","address1":"21 Whitfield Road","emphasis":"4","city":"Somerville","zip":"02144","latlng":"42.405974,-71.123247","occupants":[]},{"campus":"medford","locationid":"m162","name":"Baronian Field House","tags":"accessible-assistance, building","address1":"20 Lower Campus Road","emphasis":"1","city":"Somerville","zip":"02144","latlng":"42.403336,-71.119539","accessibility":2,"accessibilityrestroom":0,"occupants":[]},{"campus":"medford","locationid":"m031","name":"Cousens Gym","tags":"gymnasium, work out, exercise, fitness, sport, graduation-ceremony, accessible-assistance, building","address1":"161 College Avenue","emphasis":"4","city":"Medford","latlng":"42.408762,-71.116011","accessibility":2,"accessibilityrestroom":0,"occupants":[]},{"campus":"medford","locationid":"m184","name":"Gantcher Family Sports and Convocation Center","tags":"Gym, Gymnasium, Workout, Exercise, Track, Pool, Athletics, graduation-ceremony, accessible-assistance, accessible-restroom, building","address1":"161 College Avenue","emphasis":"4","city":"Medford","latlng":"42.409711,-71.115189","accessibility":2,"accessibilityrestroom":1,"occupants":[]},{"campus":"medford","locationid":"m202","name":"Steve Tisch Sports and Fitness Center","tags":"Gym, Gymnasium, Workout, Exercise, Track, Pool, Athletics, swimming, accessible-full, building","address1":"161 College Ave","emphasis":"5","city":"Medford","latlng":"42.409081,-71.115584","accessibility":1,"accessibilityrestroom":0,"occupants":[]},{"campus":"medford","locationid":"m040","name":"Jackson Gym","tags":"Dance, dancing, gymnasium, accessible-assistance, building, athletics","address1":"50 Talbot Avenue","emphasis":"1","city":"Somerville","zip":"02144","latlng":"42.404636,-71.119621","accessibility":2,"accessibilityrestroom":0,"occupants":[]},{"campus":"medford","locationid":"m142","name":"Alpha Omicron Pi","tags":"sorority, greek, residence, aopi, building","website":"http://aoiidelta.wordpress.com/","address1":"25 Whitfield Road","emphasis":"1","city":"Somerville","zip":"02144","latlng":"42.40614,-71.123793","occupants":[]},{"campus":"medford","locationid":"m111","name":"Alpha Phi","tags":"sorority, greek, residence, building","address1":"14 Sawyer Avenue","emphasis":"1","city":"Somerville","zip":"02144","latlng":"42.406213,-71.123165","occupants":[]},{"campus":"medford","locationid":"m136","name":"Alpha Tau Omega","tags":"fraternity, greek, residence, ato, building","address1":"134 Professors Row","emphasis":"1","city":"Somerville","zip":"02144","latlng":"42.4074,-71.124243","occupants":[]},{"campus":"medford","locationid":"m135","name":"Chi Omega","tags":"sorority, greek, ChiO, Chi O, residence, building","website":"http://chaptersites.chiomega.com/default.aspx?site=30","address1":"106 Professors Row","emphasis":"1","city":"Somerville","zip":"02144","latlng":"42.406915,-71.12305","occupants":[]},{"campus":"medford","locationid":"m137","name":"Delta Tau Delta: Beta Mu","tags":"fraternity, greek, residence, aepi, building","address1":"98 Professors Row","emphasis":"1","city":"Somerville","zip":"02144","latlng":"42.406745,-71.122649","occupants":[]},{"campus":"medford","locationid":"m133","name":"Delta Upsilon","tags":"fraternity, greek, DU, residence, building","address1":"114 Professors Row","emphasis":"1","city":"Somerville","zip":"02144","latlng":"42.407041,-71.123342","occupants":[]},{"campus":"medford","locationid":"m109","name":"Sigma Nu","tags":"fraternity, greek, residence, building","address1":"92 Professors Row","emphasis":"1","city":"Somerville","zip":"02144","latlng":"42.406684,-71.122359","occupants":[]},{"campus":"medford","locationid":"m138","name":"Theta Chi","tags":"fraternity, greek, residence, building","website":"http://tuftsthetachi.com/","address1":"100 Packard Avenue","emphasis":"1","city":"Somerville","zip":"02144","latlng":"42.40556,-71.123025","occupants":[]},{"campus":"medford","locationid":"z003","name":"Theta Delta Chi","tags":"fraternity, greek, residence, building","address1":"123 Packard Avenue","emphasis":"1","city":"Somerville","zip":"02144","latlng":"42.406092,-71.122037","occupants":[]},{"campus":"medford","locationid":"m105","name":"Zeta Beta Tau","tags":"fraternity, greek, residence, zbt","website":"http://zbtomicron.com/newsite/index.php","address1":"126 Packard Avenue","emphasis":"1","city":"Somerville","zip":"02144","latlng":"42.406349,-71.12253","occupants":[]},{"campus":"medford","locationid":"m139","name":"Zeta Psi","tags":"fraternity, greek, residence","website":"http://kappazete.com/","address1":"80 Professors Row","emphasis":"1","city":"Somerville","zip":"02144","latlng":"42.40642,-71.121778","occupants":[]},{"campus":"medford","locationid":"m197","name":"William A. Shoemaker Boathouse at Tufts University","tags":"crew","address1":"177 Corporation Way","emphasis":"4","city":"Medford","latlng":"42.410668,-71.073947","occupants":[]},{"campus":"medford","locationid":"mbb","name":"Brown & Brew","tags":"food, dining, coffee, building","website":"http://dining.tufts.edu/locations-hours/overview/brown-brew-coffee-house/","address1":"474 Boston Ave","emphasis":"4","city":"Medford","latlng":"42.406793,-71.116517","occupants":[]},{"campus":"medford","locationid":"m078","name":"Dewick-MacPhie Dining Hall","tags":"dining, food, accessible-assistance, building","phone":"6176273462","website":"http://dining.tufts.edu/locations-hours/overview/dewickmacphie-dining-center/","address1":"25 Latin Way","emphasis":"4","city":"Somerville","zip":"02144","latlng":"42.40523,-71.121403","accessibility":2,"accessibilityrestroom":0,"occupants":[{"name":"Central Kitchen and Bakery","website":"http://dining.tufts.edu/","email":"ja.fisher@tufts.edu","phone":"6176272067","locwithin":"Lower Level"},{"name":"Dewick Dining","website":"http://dining.tufts.edu/locations-hours/overview/dewickmacphie-dining-center/","email":"john.beaulac@tufts.edu","phone":"6176273462","locwithin":"Upper Level"}]},{"campus":"medford","locationid":"m045","name":"Gifford House","tags":"Tony Monaco, President, building","website":"http://president.tufts.edu/","address1":"161 Packard Avenue","emphasis":"4","city":"Medford","latlng":"42.407144,-71.121339","occupants":[]},{"campus":"medford","locationid":"m042","name":"Goddard Chapel","tags":"Religion, Services, Chaplaincy, graduation-ceremony, building","website":"http://chaplaincy.tufts.edu/goddard/","address1":"3 The Green","emphasis":"1","city":"Medford","latlng":"42.40715,-71.119444","occupants":[{"name":"Chaplain's Office","website":"http://chaplaincy.tufts.edu/","email":"Linda.Karpowich@tufts.edu","phone":"6176273427"}]},{"campus":"medford","locationid":"m087","name":"12 Dearborn Road","tags":"building, dormitory, residence","address1":"12 Dearborn Road","emphasis":"4","city":"Somerville","zip":"02144","latlng":"42.404896,-71.116145","occupants":[]},{"campus":"medford","locationid":"m098","name":"176 Curtis Street","tags":"building, residence","address1":"176 Curtis Street","emphasis":"1","city":"Somerville","zip":"02144","latlng":"42.409126,-71.123762","occupants":[]},{"campus":"medford","locationid":"m117","name":"9-11 Sunset Road","tags":"residence, building","address1":"9-11 Sunset Road","emphasis":"1","city":"Somerville","zip":"02144","latlng":"42.408791,-71.124349","occupants":[]},{"campus":"medford","locationid":"m090","name":"90-94 Curtis Street","tags":"residence, building","address1":"90-94 Curtis Street","emphasis":"4","city":"Somerville","zip":"02144","latlng":"42.406503,-71.125391","occupants":[]},{"campus":"medford","locationid":"m056","name":"Anthony House","tags":"Crafts House, residence, building","address1":"14 Professors Row","emphasis":"1","city":"Somerville","zip":"02144","latlng":"42.405361,-71.118375","occupants":[]},{"campus":"medford","locationid":"m047","name":"Bartol House","tags":"Arts House, residence, building","address1":"37 Sawyer Avenue","emphasis":"1","city":"Somerville","zip":"02144","latlng":"42.406539,-71.123176","occupants":[]},{"campus":"medford","locationid":"m064","name":"Bush Hall","tags":"dormitory, residence, building","address1":"29 Latin Way","emphasis":"1","city":"Somerville","zip":"02144","latlng":"42.404941,-71.121716","occupants":[]},{"campus":"medford","locationid":"m066","name":"Capen House","tags":"African American Culture, African American Center, Africana house, residence, building","address1":"8 Professors Row","emphasis":"1","city":"Somerville","zip":"02144","latlng":"42.405379,-71.118034","occupants":[{"name":"African American Center","website":"http://ase.tufts.edu/africana/","email":"africana@tufts.edu","phone":"6176273372","locwithin":"First floor"}]},{"campus":"medford","locationid":"m067","name":"Carmichael Hall","tags":"chase center, dormitory, dining, food, building","phone":"6176273557","website":"http://dining.tufts.edu/locations-hours/overview/carmichael-dining-center/","address1":"200 Packard Avenue","emphasis":"5","city":"Medford","latlng":"42.409183,-71.122699","accessibility":0,"accessibilityrestroom":0,"occupants":[{"name":"Carmichael Dining Hall","website":"http://dining.tufts.edu/locations-hours/overview/carmichael-dining-center/","email":"peter.kourafalos@tufts.edu","phone":"6176273557","locwithin":"Basement"}]},{"campus":"medford","locationid":"m069","name":"Davies House","tags":"International House, residence, I house, building","address1":"13 Sawyer Avenue","emphasis":"4","city":"Somerville","zip":"02144","latlng":"42.406459,-71.122977","occupants":[]},{"campus":"medford","locationid":"m108","name":"Dearborn House","tags":"residence, building","address1":"72 Professors Row","emphasis":"4","city":"Somerville","zip":"02144","latlng":"42.406321,-71.12137","occupants":[]},{"campus":"medford","locationid":"m118","name":"Fine Arts House","tags":"residence, building","address1":"11 Talbot Avenue","emphasis":"1","city":"Somerville","zip":"02144","latlng":"42.405028,-71.118044","occupants":[{"email":"rosalie.bruno@tufts.edu","name":"Art and Art History","phone":"6176273567","website":"http://ase.tufts.edu/art/"}]},{"campus":"medford","locationid":"m054","name":"Haskell Hall","tags":"dormitory, residence, building","address1":"43 Latin Way","emphasis":"4","city":"Somerville","zip":"02144","latlng":"42.40436,-71.121905","occupants":[]},{"campus":"medford","locationid":"m053","name":"Hill Hall","tags":"dormitory, residence, mail, building","address1":"387 Boston Avenue","emphasis":"4","city":"Medford","latlng":"42.409494,-71.119696","occupants":[{"name":"Support Services","website":"http://operations.tufts.edu/mailservices/","email":"sheila.chisholm@tufts.edu","phone":"6176275123","locwithin":"Back of building"}]},{"campus":"medford","locationid":"m052","name":"Hodgdon Hall","tags":"dormitory, dining, food, building","phone":"6176272917","website":"http://dining.tufts.edu/locations-hours/overview/hodgdon-goodtogo-takeout/","address1":"100 Talbot Avenue","emphasis":"4","city":"Somerville","zip":"02144","latlng":"42.405537,-71.122059","occupants":[{"name":"Hodgdon Dining","website":"http://dining.tufts.edu/locations-hours/overview/hodgdon-goodtogo-takeout/","email":"cyrus.falconer@tufts.edu","phone":"6176272917","locwithin":"Basement"}]},{"campus":"medford","locationid":"m146","name":"Latin Way Dormitory","tags":"dormitory, residence, building","address1":"40A-F Lower Campus Road","emphasis":"1","city":"Somerville","zip":"02144","latlng":"42.403844,-71.121186","occupants":[]},{"campus":"medford","locationid":"m006","name":"Lane Hall","tags":"Art, Geology, building","address1":"2 North Hill Road","emphasis":"1","city":"Medford","latlng":"42.409145,-71.119922","occupants":[{"name":"Geology - A&S","website":"http://eos.tufts.edu/","email":"janet.silvano@tufts.edu","phone":"6176273494","locwithin":"Room 101"}]},{"campus":"medford","locationid":"m128","name":"Lewis Hall","tags":"dormitory, residence, building","address1":"75 Packard Avenue","emphasis":"4","city":"Somerville","zip":"02144","latlng":"42.404901,-71.122826","occupants":[]},{"campus":"medford","locationid":"m073","name":"MetCalf Hall","tags":"dormitory, residence, building","address1":"56 Professors Row","emphasis":"1","city":"Somerville","zip":"02144","latlng":"42.406045,-71.120864","occupants":[]},{"campus":"medford","locationid":"m077","name":"Miller Hall","tags":"dormitory, residence, building","address1":"210 Packard Avenue","emphasis":"4","city":"Medford","latlng":"42.409047,-71.121296","occupants":[{"name":"Tufts Institute of the Environment","website":"http://environment.tufts.edu/","email":"TIE@tufts.edu","phone":"6176273645","locwithin":"Garden Level/East Rear Door"},{"name":"Office of Sustainability","website":"http://sustainability.tufts.edu","email":"sustainabilityoffice@tufts.edu","phone":"6176275517","locwithin":"Garden Level/East Rear Door"},{"name":"Environmental Studies Program","website":"http://as.tufts.edu/environmentalstudies","email":"ann.greaney-williams@tufts.edu","phone":"6176273553","locwithin":"Garden Level/East Rear Door"}]},{"campus":"medford","locationid":"m051","name":"Richardson House","tags":"women&#39;s residence, building","address1":"28 Professors Row","emphasis":"1","city":"Somerville","zip":"02144","latlng":"42.405509,-71.11916","occupants":[]},{"campus":"medford","locationid":"m050","name":"Schmalz House","tags":"residence, building","address1":"15 Whitfield Road","emphasis":"1","city":"Somerville","zip":"02144","latlng":"42.405879,-71.123102","occupants":[]},{"campus":"medford","locationid":"m196","name":"Sophia Gordon Hall","tags":"dormitory, residence, accessible-assistance, accessible-restroom, building","address1":"15 Talbot Avenue","emphasis":"4","city":"Somerville","zip":"02144","latlng":"42.40512,-71.118606","accessibility":2,"accessibilityrestroom":1,"occupants":[]},{"campus":"medford","locationid":"m043","name":"South Hall","tags":"dormitory, residence, accessible-assistance, building","address1":"30 Lower Campus Road","emphasis":"4","city":"Somerville","zip":"02144","latlng":"42.403593,-71.120392","accessibility":2,"accessibilityrestroom":0,"occupants":[{"name":"Residence Life Office","website":"http://ase.tufts.edu/reslife/","email":"reslife@tufts.edu","phone":"6176273248","locwithin":"First floor"}]},{"campus":"medford","locationid":"m048","name":"Stratton Hall","tags":"dormitory, residence, building","address1":"45 Talbot Avenue","emphasis":"1","city":"Somerville","zip":"02144","latlng":"42.405126,-71.119239","occupants":[]},{"campus":"medford","locationid":"m062","name":"Tilton Hall","tags":"dormitory, residence, building","address1":"1 Tilton Lane","emphasis":"1","city":"Somerville","zip":"02144","latlng":"42.404627,-71.12224","occupants":[]},{"campus":"medford","locationid":"m075","name":"Wilson House","tags":"residence, building","address1":"136 Curtis Street","emphasis":"4","city":"Somerville","zip":"02144","latlng":"42.4079,-71.124569","occupants":[]},{"campus":"medford","locationid":"wren","name":"Wren Hall","tags":"dorm, building","address1":"11 Winthrop Street","emphasis":"4","city":"Medford","latlng":"42.409849,-71.12191","occupants":[]},{"campus":"medford","locationid":"ext-preslawn","name":"President's Lawn","tags":"lawn","emphasis":"4","city":"Medford","latlng":"42.406851,-71.120547"},{"campus":"medford","locationid":"ext-res-quad","name":"The Quad","tags":"lawn, commencement, graduation-ceremony","emphasis":"4","city":"Medford","latlng":"42.408676,-71.121851"},{"campus":"medford","locationid":"ext-academic-quad","name":"Academic Quad","tags":"lawn, graduation-ceremony","emphasis":"1","city":"Medford","latlng":"42.407702,-71.119829"},{"campus":"medford","locationid":"ext-fletcher-field","name":"Fletcher Field","tags":"field, graduation-ceremony, athletics","emphasis":"4","city":"Medford","latlng":"42.407793,-71.123498"},{"campus":"medford","locationid":"ext-field-j","name":"Field J","tags":"field, graduation-ceremony, athletics","emphasis":"1","city":"Medford","latlng":"42.402604,-71.119475"},{"campus":"medford","locationid":"ext-lower-courts","name":"Lower Campus Tennis &amp; Basketball Courts","tags":"athletics","emphasis":"1","city":"Medford","latlng":"42.403385,-71.119984"},{"campus":"medford","locationid":"ext-ellis-oval","name":"Ellis Oval","tags":"track, graduation-ceremony, athletics","emphasis":"1","city":"Medford","latlng":"42.403428,-71.118402"},{"campus":"medford","locationid":"ext-kraft-field","name":"Kraft Field","tags":"field, athletics","emphasis":"1","city":"Medford","latlng":"42.402612,-71.117817"},{"campus":"medford","locationid":"ext-bello-field","name":"Bello Field","tags":"field, athletics","emphasis":"4","city":"Medford","latlng":"42.40653,-71.113123"},{"campus":"medford","locationid":"ext-field-f","name":"Field F","tags":"field, athletics","emphasis":"1","city":"Medford","latlng":"42.407029,-71.111696"},{"campus":"medford","locationid":"ext-field-d","name":"Field D","tags":"field, athletics","emphasis":"1","city":"Medford","latlng":"42.407266,-71.113204"},{"campus":"medford","locationid":"ext-field-a","name":"Field A","tags":"field, athletics","emphasis":"1","city":"Medford","latlng":"42.408185,-71.113767"},{"campus":"medford","locationid":"ext-field-e","name":"Field E","tags":"field, athletics","emphasis":"1","city":"Medford","latlng":"42.406217,-71.114384"},{"campus":"medford","locationid":"ext-alumni-fields","name":"Alumni Field","tags":"field, athletics","emphasis":"5","city":"Medford","latlng":"42.407516,-71.114191"},{"campus":"medford","locationid":"ext-field-c","name":"Field C","tags":"field, athletics","emphasis":"1","city":"Medford","latlng":"42.406791,-71.115392"},{"campus":"medford","locationid":"int-hamilton-pool","name":"Hamilton Pool","tags":"athletics","emphasis":"1","city":"Medford","latlng":"42.409326,-71.115403"},{"campus":"medford","locationid":"ext-library-roof","name":"Library Roof","emphasis":"1","city":"Medford","latlng":"42.406692,-71.119154"},{"campus":"medford","locationid":"ext-voute-tennis","name":"Voute Tennis Courts","tags":"athletics","emphasis":"1","city":"Medford","latlng":"42.407298,-71.12235"},{"campus":"medford","locationid":"p-eliot-pearson","name":"Eliot-Pearson Parking Lot","tags":"parking, parking-faculty-staff","emphasis":"1","city":"Medford","latlng":"42.410102,-71.115043"},{"campus":"medford","locationid":"p-80george","name":"80 George Street Parking Lot","tags":"parking, parking-visitor, parking-faculty-staff","address1":"80 George Street","address2":"*Includes a few visitor parking spots.","emphasis":"1","city":"Medford","latlng":"42.412046,-71.114572"},{"campus":"medford","locationid":"p-uppercampus-rd","name":"Upper Campus Road Parking Lot","tags":"parking, parking-faculty-staff","address2":"","emphasis":"1","city":"Medford","latlng":"42.408526,-71.120049"},{"campus":"medford","locationid":"p-fletcher","name":"Fletcher Parking Lot","tags":"parking, parking-faculty-staff","emphasis":"1","city":"Medford","latlng":"42.408375,-71.123385"},{"campus":"medford","locationid":"p-parking-200-bostonave","name":"200 Boston Avenue Parking Lot","tags":"parking, parking-no-sticker, parking-faculty-staff","emphasis":"1","city":"Medford","latlng":"42.415433,-71.12713"},{"campus":"medford","locationid":"p-aidekman2","name":"Aidekman Parking Lot 2","tags":"parking, parking-faculty-staff","emphasis":"1","city":"Medford","latlng":"42.404098,-71.119856"},{"campus":"medford","locationid":"p-lower-garage","name":"Lower Campus Garage","tags":"parking, parking-resident","emphasis":"1","city":"Medford","latlng":"42.403757,-71.119738"},{"campus":"medford","locationid":"p-bromfield-pearson","name":"Anderson Parking Lot","tags":"parking, parking-faculty-staff","emphasis":"1","city":"Medford","latlng":"42.405864,-71.116401"},{"campus":"medford","locationid":"p-aidekman1","name":"Aidekman Parking Lot 1","tags":"parking, parking-faculty-staff, parking-commuter","emphasis":"1","city":"Medford","latlng":"42.404196,-71.117614"},{"campus":"medford","locationid":"p-cousens","name":"Cousens Parking Lot","tags":"parking, parking-faculty-staff, parking-resident,  parking-commuter","emphasis":"1","city":"Medford","latlng":"42.408423,-71.114829"},{"campus":"medford","locationid":"p-dowling-garage","name":"Dowling Parking Garage","tags":"parking, parking-visitor, parking-faculty-staff,  parking-commuter","address1":"419 Boston Avenue","emphasis":"4","city":"Medford","latlng":"42.408843,-71.118311"},{"campus":"medford","locationid":"p-hillhall","name":"Hill Hall Parking","tags":"parking, parking-resident","emphasis":"1","city":"Medford","latlng":"42.409881,-71.119727"},{"campus":"medford","locationid":"p-miller","name":"Miller Parking Lot","tags":"parking, parking-resident","emphasis":"1","city":"Medford","latlng":"42.409215,-71.121105"},{"campus":"medford","locationid":"p-carmichael","name":"Carmichael Parking Lot","tags":"parking, parking-faculty-staff","emphasis":"1","city":"Medford","latlng":"42.409698,-71.122565"},{"campus":"medford","locationid":"p-tab","name":"Tab Parking Lot","tags":"parking, parking-faculty-staff","address2":"","emphasis":"1","city":"Medford","latlng":"42.401491,-71.126046"},{"campus":"medford","locationid":"cmnt-webviewing-cousens","name":"Web Viewing Area - Cousens Gym","tags":"commencement, web viewing area","emphasis":"1","city":"Medford","latlng":"42.408249,-71.116143"},{"campus":"medford","locationid":"cmnt-webviewing-cabot","name":"Web Viewing Area - Cabot Center","tags":"commencement, web viewing area","emphasis":"1","city":"Medford","latlng":"42.40783,-71.121554"},{"campus":"medford","locationid":"cmnt-webviewing-cohen","name":"Web Viewing Area - Cohen Auditorium","tags":"commencement, web viewing area","emphasis":"1","city":"Medford","latlng":"42.404228,-71.118944"},{"campus":"medford","locationid":"cmnt-webviewing-barnum","name":"Web Viewing Area - Barnum Hall","tags":"commencement, web viewing area","emphasis":"1","city":"Medford","latlng":"42.407524,-71.120526"},{"campus":"medford","locationid":"cmnt-info-booth-eaton","name":"Information Booth - Eaton Hall","tags":"commencement, info-booth","emphasis":"1","city":"Medford","latlng":"42.407021,-71.118558"},{"campus":"medford","locationid":"cmnt-info-booth-cousens","name":"Information Booth - Cousens Gym","tags":"commencement, info-booth","emphasis":"1","city":"Medford","latlng":"42.408249,-71.115816"},{"campus":"medford","locationid":"cmnt-info-booth-musiccenter","name":"Information Booth - Granoff Music Center","tags":"commencement, info-booth","emphasis":"1","city":"Medford","latlng":"42.404723,-71.118198"},{"campus":"medford","locationid":"cmnt-info-booth-west","name":"Information Booth - West Hall","tags":"commencement, info-booth","address1":"175 Packard Avenue","address2":"","emphasis":"1","city":"Medford","latlng":"42.408118,-71.120472"},{"campus":"medford","locationid":"cmnt-info-booth-campuscenter","name":"Information Booth - Mayer Campus Center","tags":"commencement, info-booth","emphasis":"1","city":"Medford","latlng":"42.40584,-71.11976"},{"campus":"medford","locationid":"cmnt-info-booth-tisch","name":"Information Booth - Tisch Library","tags":"commencement, info-booth","emphasis":"1","city":"Medford","latlng":"42.406561,-71.119571"},{"campus":"medford","locationid":"distlerhall","name":"Distler Performance Hall","tags":"graduation-ceremony, building","emphasis":"1","city":"Medford","latlng":"42.404474,-71.118118"},{"campus":"medford","locationid":"cmnt-restroom-west","name":"Restroom - Behind West Hall","tags":"commencement, restroom","emphasis":"1","city":"Medford","latlng":"42.40847,-71.120397"},{"campus":"medford","locationid":"cmnt-restroom-campuscenter","name":"Restroom - Mayer Campus Center","tags":"commencement, restroom","emphasis":"1","city":"Medford","latlng":"42.40584,-71.119609"},{"campus":"medford","locationid":"cmnt-restroom-blakely","name":"Restroom - Blakely Hall Parking","tags":"commencement, restroom","emphasis":"1","city":"Medford","latlng":"42.408229,-71.123638"},{"campus":"medford","locationid":"cmnt-restroom-voute","name":"Restroom - In front tennis courts on Packard Avenue","tags":"commencement, restroom","emphasis":"1","city":"Medford","latlng":"42.40693,-71.122243"},{"campus":"medford","locationid":"cmnt-restroom-disabled-olin","name":"Restrooms for the Disabled - Olin Center","tags":"commencement, restroom-disabled","emphasis":"1","city":"Medford","latlng":"42.408234,-71.121234"},{"campus":"medford","locationid":"cmnt-restroom-disabled-campuscenter","name":"Restrooms for the Disabled - Mayer Campus Center","tags":"commencement, restroom-disabled","emphasis":"1","city":"Medford","latlng":"42.40584,-71.119448"},{"campus":"medford","locationid":"cmnt-restroom-disabled-cabot","name":"Restrooms for the Disabled - Cabot Center","tags":"commencement, restroom-disabled","emphasis":"1","city":"Medford","latlng":"42.40783,-71.12139"},{"campus":"medford","locationid":"cmnt-food-campuscenter","name":"Food Service - Mayer Campus Center","tags":"commencement, food-service","emphasis":"1","city":"Medford","latlng":"42.40584,-71.119930"},{"campus":"medford","locationid":"cmnt-food-cousens","name":"Food Service - Cousens Gym","tags":"commencement, food-service","emphasis":"1","city":"Medford","latlng":"42.408249,-71.115981"},{"campus":"medford","locationid":"cmnt-shuttle-winthrop","name":"Shuttle Stop - 51 Winthrop Street","tags":"commencement, shuttle","emphasis":"1","city":"Medford","latlng":"42.411239,-71.121877"},{"campus":"medford","locationid":"cmnt-shuttle-dowling","name":"Shuttle Stop - Dowling Parking Garage","tags":"commencement, shuttle","emphasis":"1","city":"Medford","latlng":"42.408696,-71.117908"},{"campus":"medford","locationid":"cmnt-shuttle-eliotpearson","name":"Shuttle Stop - Eliot-Pearson","tags":"commencement, shuttle","emphasis":"1","city":"Medford","latlng":"42.409825,-71.114196"},{"campus":"medford","locationid":"cmnt-dropoff-disabled-west","name":"Handicapped Drop-off - West Hall","tags":"commencement, disabled-dropoff","emphasis":"1","city":"Medford","latlng":"42.408197,-71.12088"},{"campus":"medford","locationid":"cmnt-dropoff-disabled-jfield","name":"Handicapped Drop-off - J Field","tags":"commencement, disabled-dropoff","emphasis":"1","city":"Medford","latlng":"42.402386,-71.11999"},{"campus":"medford","locationid":"cmnt-shuttle-college-ave","name":"Shuttle Stop - College Avenue","tags":"commencement, shuttle","emphasis":"1","city":"Medford","latlng":"42.40485,-71.117222"},{"campus":"medford","locationid":"Location48","name":"Shuttle Stop - The Green","tags":"commencement, shuttle","emphasis":"1","city":"Medford","latlng":"42.408059,-71.120945"},{"campus":"medford","locationid":"cmnt-shuttle-anderson","name":"Shuttle Stop - Anderson Hall","tags":"commencement, shuttle","emphasis":"1","city":"Medford","latlng":"42.406573,-71.117135"},{"campus":"medford","locationid":"Location47","name":"Shuttle Stop - Packard Avenue","tags":"commencement, shuttle","emphasis":"1","city":"Medford","latlng":"42.404509,-71.123343"},{"campus":"medford","locationid":"cmnt-shuttle-cousens","name":"Shuttle Stop - Cousens  Gym","tags":"commencement, shuttle","emphasis":"1","city":"Medford","latlng":"42.408249,-71.115441"},{"campus":"medford","locationid":"p-boathouse","name":"Boathouse Parking","tags":"parking, parking-no-sticker","emphasis":"1","city":"Medford","latlng":"42.41074,-71.075068"},{"campus":"medford","locationid":"cmnt-shuttle-tab","name":"Shuttle Stop - Tab","tags":"commencement, shuttle","emphasis":"1","city":"Medford","latlng":"42.401566,-71.126196"},{"campus":"medford","locationid":"cmnt-shuttle-davissquare","name":"Shuttle Stop - Davis Square","tags":"commencement, shuttle","emphasis":"1","city":"Medford","latlng":"42.396531,-71.122355"},{"campus":"medford","locationid":"cmnt-restroom-olin","name":"Restroom - Olin Center","tags":"commencement, restroom","emphasis":"1","city":"Medford","latlng":"42.408234,-71.121395"}